[{"codigo_puesto":"050010301","coddane":"05001","DEPNOMBRE":"ANTIOQUIA","MUNNOMBRE":"MEDELLIN","PUESNOMBRE":"I.E. ASIA IGNACIANA","Latitud":6.3062883985,"Longitud":-75.5550337002,"total_votos":8606,"ganador":"ABELARDO DE LA ESPRIELLA","votos_ganador":4777,"margen":0.153,"codmpio":"05001"},{"codigo_puesto":"050010302","coddane":"05001","DEPNOMBRE":"ANTIOQUIA","MUNNOMBRE":"MEDELLIN","PUESNOMBRE":"SEC.ESC. MANUEL URIBE ANGEL","Latitud":6.2980305954,"Longitud":-75.5537101126,"total_votos":9124,"ganador":"ABELARDO DE LA ESPRIELLA","votos_ganador":4611,"margen":0.0521,"codmpio":"05001"},{"codigo_puesto":"050010303","coddane":"05001","DEPNOMBRE":"ANTIOQUIA","MUNNOMBRE":"MEDELLIN","PUESNOMBRE":"SEC. ESC. FIDEL ANTONIO SALDARRIAGA","Latitud":6.2940200581,"Longitud":-75.5538980577,"total_votos":5334,"ganador":"ABELARDO DE LA ESPRIELLA","votos_ganador":2909,"margen":0.1337,"codmpio":"05001"},{"codigo_puesto":"050010304","coddane":"05001","DEPNOMBRE":"ANTIOQUIA","MUNNOMBRE":"MEDELLIN","PUESNOMBRE":"SEC ESC LA FRONTERA","Latitud":6.3057456814,"Longitud":-75.5526528808,"total_votos":2727,"ganador":"ABELARDO DE LA ESPRIELLA","votos_ganador":1347,"margen":0.0279,"codmpio":"05001"},{"codigo_puesto":"050010401","coddane":"05001","DEPNOMBRE":"ANTIOQUIA","MUNNOMBRE":"MEDELLIN","PUESNOMBRE":"I.E. BARRIO SANTA CRUZ","Latitud":6.2924013915,"Longitud":-75.5504001736,"total_votos":6325,"ganador":"ABELARDO DE LA ESPRIELLA","votos_ganador":3119,"margen":0.029,"codmpio":"05001"},{"codigo_puesto":"050010402","coddane":"05001","DEPNOMBRE":"ANTIOQUIA","MUNNOMBRE":"MEDELLIN","PUESNOMBRE":"SEC. ESC. ARZOBISPO GARCIA","Latitud":6.2901249016,"Longitud":-75.5560018449,"total_votos":6622,"ganador":"ABELARDO DE LA ESPRIELLA","votos_ganador":3803,"margen":0.1933,"codmpio":"05001"},{"codigo_puesto":"050010403","coddane":"05001","DEPNOMBRE":"ANTIOQUIA","MUNNOMBRE":"MEDELLIN","PUESNOMBRE":"I.E. REPUBLICA DE HONDURAS","Latitud":6.2907863104,"Longitud":-75.5595224554,"total_votos":6363,"ganador":"ABELARDO DE LA ESPRIELLA","votos_ganador":3356,"margen":0.0955,"codmpio":"05001"},{"codigo_puesto":"050010501","coddane":"05001","DEPNOMBRE":"ANTIOQUIA","MUNNOMBRE":"MEDELLIN","PUESNOMBRE":"CORREA","Latitud":6.2783364074,"Longitud":-75.5461153905,"total_votos":9987,"ganador":"ABELARDO DE LA ESPRIELLA","votos_ganador":5449,"margen":0.1381,"codmpio":"05001"},{"codigo_puesto":"050010502","coddane":"05001","DEPNOMBRE":"ANTIOQUIA","MUNNOMBRE":"MEDELLIN","PUESNOMBRE":"IE LAS NIEVES","Latitud":6.2735706723,"Longitud":-75.5491439774,"total_votos":8070,"ganador":"ABELARDO DE LA ESPRIELLA","votos_ganador":4178,"margen":0.0845,"codmpio":"05001"},{"codigo_puesto":"050010503","coddane":"05001","DEPNOMBRE":"ANTIOQUIA","MUNNOMBRE":"MEDELLIN","PUESNOMBRE":"I.E. MANUELA BELTRAN","Latitud":6.2662461315,"Longitud":-75.5487448914,"total_votos":5647,"ganador":"ABELARDO DE LA ESPRIELLA","votos_ganador":3917,"margen":0.4369,"codmpio":"05001"},{"codigo_puesto":"050010504","coddane":"05001","DEPNOMBRE":"ANTIOQUIA","MUNNOMBRE":"MEDELLIN","PUESNOMBRE":"SEC ESC SAN JOSE (IE MANUELA BELTRAN)","Latitud":6.2655848405,"Longitud":-75.5457995809,"total_votos":9204,"ganador":"ABELARDO DE LA ESPRIELLA","votos_ganador":4741,"margen":0.0752,"codmpio":"05001"},{"codigo_puesto":"050010505","coddane":"05001","DEPNOMBRE":"ANTIOQUIA","MUNNOMBRE":"MEDELLIN","PUESNOMBRE":"I.E.RAMON MUNERA LOPERA","Latitud":6.2697246631,"Longitud":-75.5435104397,"total_votos":4357,"ganador":"IVÁN CEPEDA CASTRO","votos_ganador":2462,"margen":0.1724,"codmpio":"05001"},{"codigo_puesto":"050010506","coddane":"05001","DEPNOMBRE":"ANTIOQUIA","MUNNOMBRE":"MEDELLIN","PUESNOMBRE":"IE BELLO ORIENTE","Latitud":6.2769736861,"Longitud":-75.5380888046,"total_votos":1233,"ganador":"IVÁN CEPEDA CASTRO","votos_ganador":689,"margen":0.1869,"codmpio":"05001"},{"codigo_puesto":"050010507","coddane":"05001","DEPNOMBRE":"ANTIOQUIA","MUNNOMBRE":"MEDELLIN","PUESNOMBRE":"IE JOSE ROBERTO VASQUEZ","Latitud":6.2686559603,"Longitud":-75.550129039,"total_votos":2422,"ganador":"IVÁN CEPEDA CASTRO","votos_ganador":1329,"margen":0.1369,"codmpio":"05001"},{"codigo_puesto":"050010508","coddane":"05001","DEPNOMBRE":"ANTIOQUIA","MUNNOMBRE":"MEDELLIN","PUESNOMBRE":"SEC. ESC. BALDOMERO SANIN CANO","Latitud":6.269048448,"Longitud":-75.5482673473,"total_votos":4007,"ganador":"IVÁN CEPEDA CASTRO","votos_ganador":1958,"margen":0.0254,"codmpio":"05001"},{"codigo_puesto":"050010601","coddane":"05001","DEPNOMBRE":"ANTIOQUIA","MUNNOMBRE":"MEDELLIN","PUESNOMBRE":"I.E. JOSE ANTONIO GALAN","Latitud":6.2850496819,"Longitud":-75.5521425525,"total_votos":7517,"ganador":"ABELARDO DE LA ESPRIELLA","votos_ganador":4478,"margen":0.2333,"codmpio":"05001"},{"codigo_puesto":"050010602","coddane":"05001","DEPNOMBRE":"ANTIOQUIA","MUNNOMBRE":"MEDELLIN","PUESNOMBRE":"I.E. HERNAN TORO AGUDELO","Latitud":6.2681776537,"Longitud":-75.5548682029,"total_votos":9315,"ganador":"ABELARDO DE LA ESPRIELLA","votos_ganador":5583,"margen":0.2394,"codmpio":"05001"},{"codigo_puesto":"050010603","coddane":"05001","DEPNOMBRE":"ANTIOQUIA","MUNNOMBRE":"MEDELLIN","PUESNOMBRE":"SUSANA","Latitud":6.2622107989,"Longitud":-75.5523536204,"total_votos":4847,"ganador":"ABELARDO DE LA ESPRIELLA","votos_ganador":2725,"margen":0.1698,"codmpio":"05001"},{"codigo_puesto":"050010604","coddane":"05001","DEPNOMBRE":"ANTIOQUIA","MUNNOMBRE":"MEDELLIN","PUESNOMBRE":"IE SAN JUAN BAUTISTA DE LA SALLE","Latitud":6.2844137821,"Longitud":-75.5493012091,"total_votos":3165,"ganador":"IVÁN CEPEDA CASTRO","votos_ganador":1625,"margen":0.067,"codmpio":"05001"},{"codigo_puesto":"050010701","coddane":"05001","DEPNOMBRE":"ANTIOQUIA","MUNNOMBRE":"MEDELLIN","PUESNOMBRE":"COL AGUSTINIANO DE SAN NICOLAS","Latitud":6.2847623543,"Longitud":-75.5555363268,"total_votos":8845,"ganador":"ABELARDO DE LA ESPRIELLA","votos_ganador":5958,"margen":0.3974,"codmpio":"05001"},{"codigo_puesto":"050010702","coddane":"05001","DEPNOMBRE":"ANTIOQUIA","MUNNOMBRE":"MEDELLIN","PUESNOMBRE":"TORO","Latitud":6.28232846,"Longitud":-75.5603767127,"total_votos":7066,"ganador":"ABELARDO DE LA ESPRIELLA","votos_ganador":4515,"margen":0.326,"codmpio":"05001"},{"codigo_puesto":"050010703","coddane":"05001","DEPNOMBRE":"ANTIOQUIA","MUNNOMBRE":"MEDELLIN","PUESNOMBRE":"I.E. GILBERTO ALZATE AVENDAÑO","Latitud":6.2836700285,"Longitud":-75.562808303,"total_votos":7528,"ganador":"ABELARDO DE LA ESPRIELLA","votos_ganador":4413,"margen":0.2109,"codmpio":"05001"},{"codigo_puesto":"050010704","coddane":"05001","DEPNOMBRE":"ANTIOQUIA","MUNNOMBRE":"MEDELLIN","PUESNOMBRE":"I.E. CAMPO VALDES","Latitud":6.2756598299,"Longitud":-75.5558854218,"total_votos":8342,"ganador":"ABELARDO DE LA ESPRIELLA","votos_ganador":4636,"margen":0.1495,"codmpio":"05001"},{"codigo_puesto":"050010705","coddane":"05001","DEPNOMBRE":"ANTIOQUIA","MUNNOMBRE":"MEDELLIN","PUESNOMBRE":"I.E.SAN JUAN BOSCO","Latitud":6.2758762964,"Longitud":-75.5611061968,"total_votos":2572,"ganador":"ABELARDO DE LA ESPRIELLA","votos_ganador":1400,"margen":0.1222,"codmpio":"05001"},{"codigo_puesto":"050010706","coddane":"05001","DEPNOMBRE":"ANTIOQUIA","MUNNOMBRE":"MEDELLIN","PUESNOMBRE":"I.E. JOSE EUSEBIO CARO","Latitud":6.285556325,"Longitud":-75.5585851624,"total_votos":2717,"ganador":"ABELARDO DE LA ESPRIELLA","votos_ganador":1388,"margen":0.0555,"codmpio":"05001"},{"codigo_puesto":"050010707","coddane":"05001","DEPNOMBRE":"ANTIOQUIA","MUNNOMBRE":"MEDELLIN","PUESNOMBRE":"IE LORENZA VILLEGAS DE SANTOS","Latitud":6.280367265,"Longitud":-75.5609308314,"total_votos":2670,"ganador":"ABELARDO DE LA ESPRIELLA","votos_ganador":1368,"margen":0.0576,"codmpio":"05001"},{"codigo_puesto":"050010708","coddane":"05001","DEPNOMBRE":"ANTIOQUIA","MUNNOMBRE":"MEDELLIN","PUESNOMBRE":"SEC ESC TOMAS CARRASQUILLA No 1","Latitud":6.2836952049,"Longitud":-75.5631898695,"total_votos":1297,"ganador":"IVÁN CEPEDA CASTRO","votos_ganador":629,"margen":0.008,"codmpio":"05001"},{"codigo_puesto":"050010801","coddane":"05001","DEPNOMBRE":"ANTIOQUIA","MUNNOMBRE":"MEDELLIN","PUESNOMBRE":"I.E. ALFONSO MORA NARANJO","Latitud":6.2712185416,"Longitud":-75.5572176698,"total_votos":6631,"ganador":"ABELARDO DE LA ESPRIELLA","votos_ganador":4387,"margen":0.3665,"codmpio":"05001"},{"codigo_puesto":"050010802","coddane":"05001","DEPNOMBRE":"ANTIOQUIA","MUNNOMBRE":"MEDELLIN","PUESNOMBRE":"I.E. JOSE MARIA BRAVO MARQUEZ","Latitud":6.2656262512,"Longitud":-75.5573440768,"total_votos":5199,"ganador":"ABELARDO DE LA ESPRIELLA","votos_ganador":3054,"margen":0.2153,"codmpio":"05001"},{"codigo_puesto":"050010803","coddane":"05001","DEPNOMBRE":"ANTIOQUIA","MUNNOMBRE":"MEDELLIN","PUESNOMBRE":"I.E. FRANCISCO MIRANDA","Latitud":6.2740802514,"Longitud":-75.563600905,"total_votos":8773,"ganador":"ABELARDO DE LA ESPRIELLA","votos_ganador":5301,"margen":0.2568,"codmpio":"05001"},{"codigo_puesto":"050010804","coddane":"05001","DEPNOMBRE":"ANTIOQUIA","MUNNOMBRE":"MEDELLIN","PUESNOMBRE":"I.E. JAVIERA LONDOÑO SEVILLA","Latitud":6.2679478775,"Longitud":-75.5649638977,"total_votos":8202,"ganador":"IVÁN CEPEDA CASTRO","votos_ganador":3998,"margen":0.0088,"codmpio":"05001"},{"codigo_puesto":"050010805","coddane":"05001","DEPNOMBRE":"ANTIOQUIA","MUNNOMBRE":"MEDELLIN","PUESNOMBRE":"I.E. EL BOSQUE","Latitud":6.2800006957,"Longitud":-75.5670925637,"total_votos":2898,"ganador":"IVÁN CEPEDA CASTRO","votos_ganador":1638,"margen":0.1721,"codmpio":"05001"},{"codigo_puesto":"050010806","coddane":"05001","DEPNOMBRE":"ANTIOQUIA","MUNNOMBRE":"MEDELLIN","PUESNOMBRE":"SEC ESC JULIO ARBOLEDA","Latitud":6.2728411413,"Longitud":-75.5625270969,"total_votos":1605,"ganador":"IVÁN CEPEDA CASTRO","votos_ganador":789,"margen":0.0207,"codmpio":"05001"},{"codigo_puesto":"050010807","coddane":"05001","DEPNOMBRE":"ANTIOQUIA","MUNNOMBRE":"MEDELLIN","PUESNOMBRE":"SEC. ESC. PORFIRIO BARBA JACOB","Latitud":6.2687825079,"Longitud":-75.5565640184,"total_votos":687,"ganador":"ABELARDO DE LA ESPRIELLA","votos_ganador":390,"margen":0.1765,"codmpio":"05001"},{"codigo_puesto":"050010808","coddane":"05001","DEPNOMBRE":"ANTIOQUIA","MUNNOMBRE":"MEDELLIN","PUESNOMBRE":"IE FE Y ALEGRIA LUIS AMIGO MORAVIA","Latitud":6.2791208666,"Longitud":-75.5664174751,"total_votos":1669,"ganador":"IVÁN CEPEDA CASTRO","votos_ganador":919,"margen":0.1437,"codmpio":"05001"},{"codigo_puesto":"050010901","coddane":"05001","DEPNOMBRE":"ANTIOQUIA","MUNNOMBRE":"MEDELLIN","PUESNOMBRE":"I.E. JULIO CESAR GARCIA","Latitud":6.3067006008,"Longitud":-75.564148018,"total_votos":7905,"ganador":"ABELARDO DE LA ESPRIELLA","votos_ganador":5624,"margen":0.468,"codmpio":"05001"},{"codigo_puesto":"050010902","coddane":"05001","DEPNOMBRE":"ANTIOQUIA","MUNNOMBRE":"MEDELLIN","PUESNOMBRE":"IE DIEGO ECHAVARRIA MISAS","Latitud":6.3082772471,"Longitud":-75.5691390153,"total_votos":8268,"ganador":"ABELARDO DE LA ESPRIELLA","votos_ganador":5482,"margen":0.3695,"codmpio":"05001"},{"codigo_puesto":"050010903","coddane":"05001","DEPNOMBRE":"ANTIOQUIA","MUNNOMBRE":"MEDELLIN","PUESNOMBRE":"SJ","Latitud":6.3016563427,"Longitud":-75.5593288502,"total_votos":7526,"ganador":"ABELARDO DE LA ESPRIELLA","votos_ganador":4316,"margen":0.1916,"codmpio":"05001"},{"codigo_puesto":"050010904","coddane":"05001","DEPNOMBRE":"ANTIOQUIA","MUNNOMBRE":"MEDELLIN","PUESNOMBRE":"I.E.SEBASTIAN DE BELALCAZAR","Latitud":6.2985733042,"Longitud":-75.5654747045,"total_votos":2234,"ganador":"ABELARDO DE LA ESPRIELLA","votos_ganador":1268,"margen":0.1746,"codmpio":"05001"},{"codigo_puesto":"050010905","coddane":"05001","DEPNOMBRE":"ANTIOQUIA","MUNNOMBRE":"MEDELLIN","PUESNOMBRE":"SEC ESC TRICENTENARIO","Latitud":6.2922354285,"Longitud":-75.5645635388,"total_votos":6400,"ganador":"ABELARDO DE LA ESPRIELLA","votos_ganador":3469,"margen":0.1228,"codmpio":"05001"},{"codigo_puesto":"050010906","coddane":"05001","DEPNOMBRE":"ANTIOQUIA","MUNNOMBRE":"MEDELLIN","PUESNOMBRE":"SEC ESC TOSCANA","Latitud":6.3062403329,"Longitud":-75.5593472389,"total_votos":2030,"ganador":"ABELARDO DE LA ESPRIELLA","votos_ganador":1039,"margen":0.0678,"codmpio":"05001"},{"codigo_puesto":"050011001","coddane":"05001","DEPNOMBRE":"ANTIOQUIA","MUNNOMBRE":"MEDELLIN","PUESNOMBRE":"I.E. MARIA MONTESSORI","Latitud":6.2868947929,"Longitud":-75.5750186974,"total_votos":9677,"ganador":"ABELARDO DE LA ESPRIELLA","votos_ganador":6013,"margen":0.291,"codmpio":"05001"},{"codigo_puesto":"050011002","coddane":"05001","DEPNOMBRE":"ANTIOQUIA","MUNNOMBRE":"MEDELLIN","PUESNOMBRE":"ITM CASTILLA","Latitud":6.2939136514,"Longitud":-75.5693422456,"total_votos":11451,"ganador":"ABELARDO DE LA ESPRIELLA","votos_ganador":6532,"margen":0.1858,"codmpio":"05001"},{"codigo_puesto":"050011003","coddane":"05001","DEPNOMBRE":"ANTIOQUIA","MUNNOMBRE":"MEDELLIN","PUESNOMBRE":"I.E. DINAMARCA","Latitud":6.2825645008,"Longitud":-75.572952127,"total_votos":4358,"ganador":"ABELARDO DE LA ESPRIELLA","votos_ganador":2220,"margen":0.0569,"codmpio":"05001"},{"codigo_puesto":"050011004","coddane":"05001","DEPNOMBRE":"ANTIOQUIA","MUNNOMBRE":"MEDELLIN","PUESNOMBRE":"I.E. REPUBLICA DE URUGUAY","Latitud":6.2837884622,"Longitud":-75.5769027006,"total_votos":8501,"ganador":"ABELARDO DE LA ESPRIELLA","votos_ganador":5582,"margen":0.3666,"codmpio":"05001"},{"codigo_puesto":"050011005","coddane":"05001","DEPNOMBRE":"ANTIOQUIA","MUNNOMBRE":"MEDELLIN","PUESNOMBRE":"IE FELIX DE BEDOUT MORENO","Latitud":6.3061159035,"Longitud":-75.5694177579,"total_votos":3274,"ganador":"ABELARDO DE LA ESPRIELLA","votos_ganador":1894,"margen":0.1972,"codmpio":"05001"},{"codigo_puesto":"050011006","coddane":"05001","DEPNOMBRE":"ANTIOQUIA","MUNNOMBRE":"MEDELLIN","PUESNOMBRE":"TERMINAL DE TRANSPORTES DEL NORTE","Latitud":6.2789919856,"Longitud":-75.5713458525,"total_votos":1713,"ganador":"ABELARDO DE LA ESPRIELLA","votos_ganador":839,"margen":0.0145,"codmpio":"05001"},{"codigo_puesto":"050011101","coddane":"05001","DEPNOMBRE":"ANTIOQUIA","MUNNOMBRE":"MEDELLIN","PUESNOMBRE":"I.E. CIUDADELA LAS AMERICAS","Latitud":6.3086620124,"Longitud":-75.5752581486,"total_votos":7805,"ganador":"ABELARDO DE LA ESPRIELLA","votos_ganador":4608,"margen":0.2249,"codmpio":"05001"},{"codigo_puesto":"050011102","coddane":"05001","DEPNOMBRE":"ANTIOQUIA","MUNNOMBRE":"MEDELLIN","PUESNOMBRE":"I.E. PROGRESAR","Latitud":6.3086700176,"Longitud":-75.5806119376,"total_votos":4500,"ganador":"ABELARDO DE LA ESPRIELLA","votos_ganador":2764,"margen":0.2865,"codmpio":"05001"},{"codigo_puesto":"050011103","coddane":"05001","DEPNOMBRE":"ANTIOQUIA","MUNNOMBRE":"MEDELLIN","PUESNOMBRE":"SEC. ESC. LEON DE GREIFF","Latitud":6.3021813134,"Longitud":-75.5807233463,"total_votos":4290,"ganador":"ABELARDO DE LA ESPRIELLA","votos_ganador":2667,"margen":0.294,"codmpio":"05001"},{"codigo_puesto":"050011104","coddane":"05001","DEPNOMBRE":"ANTIOQUIA","MUNNOMBRE":"MEDELLIN","PUESNOMBRE":"I.E. DOCE DE OCTUBRE","Latitud":6.3029459895,"Longitud":-75.576890722,"total_votos":4723,"ganador":"ABELARDO DE LA ESPRIELLA","votos_ganador":3372,"margen":0.4661,"codmpio":"05001"},{"codigo_puesto":"050011105","coddane":"05001","DEPNOMBRE":"ANTIOQUIA","MUNNOMBRE":"MEDELLIN","PUESNOMBRE":"I.E. JOSE MARIA ESPINOSA PRIETO - CASD","Latitud":6.2968193318,"Longitud":-75.5752072858,"total_votos":2063,"ganador":"ABELARDO DE LA ESPRIELLA","votos_ganador":996,"margen":0.0035,"codmpio":"05001"},{"codigo_puesto":"050011106","coddane":"05001","DEPNOMBRE":"ANTIOQUIA","MUNNOMBRE":"MEDELLIN","PUESNOMBRE":"I.E. EL TRIUNFO SANTA TERESA","Latitud":6.3066047129,"Longitud":-75.5811799215,"total_votos":2646,"ganador":"IVÁN CEPEDA CASTRO","votos_ganador":1315,"margen":0.0362,"codmpio":"05001"},{"codigo_puesto":"050011107","coddane":"05001","DEPNOMBRE":"ANTIOQUIA","MUNNOMBRE":"MEDELLIN","PUESNOMBRE":"I.E. SANTA JUANA DE LESTONNAC","Latitud":6.302522339,"Longitud":-75.5754075678,"total_votos":5349,"ganador":"ABELARDO DE LA ESPRIELLA","votos_ganador":2613,"margen":0.0227,"codmpio":"05001"},{"codigo_puesto":"050011108","coddane":"05001","DEPNOMBRE":"ANTIOQUIA","MUNNOMBRE":"MEDELLIN","PUESNOMBRE":"I.E. JESUS MARIA VALLE","Latitud":6.3005482835,"Longitud":-75.5820951568,"total_votos":3734,"ganador":"ABELARDO DE LA ESPRIELLA","votos_ganador":1821,"margen":0.0117,"codmpio":"05001"},{"codigo_puesto":"050011201","coddane":"05001","DEPNOMBRE":"ANTIOQUIA","MUNNOMBRE":"MEDELLIN","PUESNOMBRE":"I.E.MAESTRO FERNANDO BOTERO","Latitud":6.3014899648,"Longitud":-75.572021359,"total_votos":6873,"ganador":"ABELARDO DE LA ESPRIELLA","votos_ganador":4680,"margen":0.4084,"codmpio":"05001"},{"codigo_puesto":"050011202","coddane":"05001","DEPNOMBRE":"ANTIOQUIA","MUNNOMBRE":"MEDELLIN","PUESNOMBRE":"I.E.ALFREDO COCK ARANGO","Latitud":6.2964491241,"Longitud":-75.5734368827,"total_votos":6542,"ganador":"ABELARDO DE LA ESPRIELLA","votos_ganador":4249,"margen":0.3487,"codmpio":"05001"},{"codigo_puesto":"050011203","coddane":"05001","DEPNOMBRE":"ANTIOQUIA","MUNNOMBRE":"MEDELLIN","PUESNOMBRE":"SEC.ESC.SAN MARTIN DE PORRES","Latitud":6.295917698,"Longitud":-75.5785834333,"total_votos":4695,"ganador":"ABELARDO DE LA ESPRIELLA","votos_ganador":2951,"margen":0.3104,"codmpio":"05001"},{"codigo_puesto":"050011204","coddane":"05001","DEPNOMBRE":"ANTIOQUIA","MUNNOMBRE":"MEDELLIN","PUESNOMBRE":"I.E. KENNEDY","Latitud":6.2908185032,"Longitud":-75.5815748218,"total_votos":7498,"ganador":"ABELARDO DE LA ESPRIELLA","votos_ganador":5179,"margen":0.4354,"codmpio":"05001"},{"codigo_puesto":"050011205","coddane":"05001","DEPNOMBRE":"ANTIOQUIA","MUNNOMBRE":"MEDELLIN","PUESNOMBRE":"SEC.CONCENTRACION EDUC.KENNEDY","Latitud":6.2904408212,"Longitud":-75.5818946826,"total_votos":5331,"ganador":"ABELARDO DE LA ESPRIELLA","votos_ganador":2926,"margen":0.1463,"codmpio":"05001"},{"codigo_puesto":"050011206","coddane":"05001","DEPNOMBRE":"ANTIOQUIA","MUNNOMBRE":"MEDELLIN","PUESNOMBRE":"I.E. JORGE ELIECER GAITAN","Latitud":6.2899726589,"Longitud":-75.5851847366,"total_votos":2692,"ganador":"ABELARDO DE LA ESPRIELLA","votos_ganador":1479,"margen":0.1399,"codmpio":"05001"},{"codigo_puesto":"050011207","coddane":"05001","DEPNOMBRE":"ANTIOQUIA","MUNNOMBRE":"MEDELLIN","PUESNOMBRE":"SEC. ESC. EL PEDREGAL","Latitud":6.3033400627,"Longitud":-75.5728664236,"total_votos":3212,"ganador":"IVÁN CEPEDA CASTRO","votos_ganador":1599,"margen":0.0363,"codmpio":"05001"},{"codigo_puesto":"050011208","coddane":"05001","DEPNOMBRE":"ANTIOQUIA","MUNNOMBRE":"MEDELLIN","PUESNOMBRE":"I.E.LA ESPERANZA","Latitud":6.2929358074,"Longitud":-75.5772824523,"total_votos":2706,"ganador":"ABELARDO DE LA ESPRIELLA","votos_ganador":1477,"margen":0.1266,"codmpio":"05001"},{"codigo_puesto":"050011209","coddane":"05001","DEPNOMBRE":"ANTIOQUIA","MUNNOMBRE":"MEDELLIN","PUESNOMBRE":"SENA PEDREGAL","Latitud":6.3020780111,"Longitud":-75.5685615699,"total_votos":203,"ganador":"ABELARDO DE LA ESPRIELLA","votos_ganador":102,"margen":0.0303,"codmpio":"05001"},{"codigo_puesto":"050011301","coddane":"05001","DEPNOMBRE":"ANTIOQUIA","MUNNOMBRE":"MEDELLIN","PUESNOMBRE":"I.E. SAN VICENTE DE PAUL","Latitud":6.2789779056,"Longitud":-75.5788320327,"total_votos":6869,"ganador":"ABELARDO DE LA ESPRIELLA","votos_ganador":4790,"margen":0.4374,"codmpio":"05001"},{"codigo_puesto":"050011302","coddane":"05001","DEPNOMBRE":"ANTIOQUIA","MUNNOMBRE":"MEDELLIN","PUESNOMBRE":"SEC.ESC. EL DIAMANTE","Latitud":6.2852034505,"Longitud":-75.587197124,"total_votos":6108,"ganador":"ABELARDO DE LA ESPRIELLA","votos_ganador":4208,"margen":0.425,"codmpio":"05001"},{"codigo_puesto":"050011303","coddane":"05001","DEPNOMBRE":"ANTIOQUIA","MUNNOMBRE":"MEDELLIN","PUESNOMBRE":"I.E.EL DIAMANTE (SEDE BTO)","Latitud":6.2860201275,"Longitud":-75.5881391413,"total_votos":6059,"ganador":"ABELARDO DE LA ESPRIELLA","votos_ganador":3140,"margen":0.0764,"codmpio":"05001"},{"codigo_puesto":"050011304","coddane":"05001","DEPNOMBRE":"ANTIOQUIA","MUNNOMBRE":"MEDELLIN","PUESNOMBRE":"I.E. VILLA DE LA CANDELARIA","Latitud":6.284970871,"Longitud":-75.5937074592,"total_votos":7218,"ganador":"ABELARDO DE LA ESPRIELLA","votos_ganador":4608,"margen":0.3251,"codmpio":"05001"},{"codigo_puesto":"050011305","coddane":"05001","DEPNOMBRE":"ANTIOQUIA","MUNNOMBRE":"MEDELLIN","PUESNOMBRE":"I.E.FE Y ALEGRIA SAN JOSE","Latitud":6.2912018051,"Longitud":-75.5902793783,"total_votos":4421,"ganador":"ABELARDO DE LA ESPRIELLA","votos_ganador":2147,"margen":0.0113,"codmpio":"05001"},{"codigo_puesto":"050011306","coddane":"05001","DEPNOMBRE":"ANTIOQUIA","MUNNOMBRE":"MEDELLIN","PUESNOMBRE":"TECNOLOGICO DE ANTIOQUIA","Latitud":6.279943726,"Longitud":-75.5831927342,"total_votos":8043,"ganador":"ABELARDO DE LA ESPRIELLA","votos_ganador":4627,"margen":0.1861,"codmpio":"05001"},{"codigo_puesto":"050011307","coddane":"05001","DEPNOMBRE":"ANTIOQUIA","MUNNOMBRE":"MEDELLIN","PUESNOMBRE":"IE JESUS REY","Latitud":6.2833339201,"Longitud":-75.5921685364,"total_votos":4918,"ganador":"ABELARDO DE LA ESPRIELLA","votos_ganador":2680,"margen":0.1325,"codmpio":"05001"},{"codigo_puesto":"050011308","coddane":"05001","DEPNOMBRE":"ANTIOQUIA","MUNNOMBRE":"MEDELLIN","PUESNOMBRE":"IE AURES","Latitud":6.2902077087,"Longitud":-75.5965264136,"total_votos":3662,"ganador":"IVÁN CEPEDA CASTRO","votos_ganador":1815,"margen":0.0377,"codmpio":"05001"},{"codigo_puesto":"050011401","coddane":"05001","DEPNOMBRE":"ANTIOQUIA","MUNNOMBRE":"MEDELLIN","PUESNOMBRE":"IE MON GERARDO VALENCIA CANO","Latitud":6.2691166008,"Longitud":-75.5877162141,"total_votos":3940,"ganador":"ABELARDO DE LA ESPRIELLA","votos_ganador":2442,"margen":0.2839,"codmpio":"05001"},{"codigo_puesto":"050011402","coddane":"05001","DEPNOMBRE":"ANTIOQUIA","MUNNOMBRE":"MEDELLIN","PUESNOMBRE":"I.E. JORGE ROBLEDO","Latitud":6.2767561193,"Longitud":-75.5974749406,"total_votos":7667,"ganador":"ABELARDO DE LA ESPRIELLA","votos_ganador":5105,"margen":0.3751,"codmpio":"05001"},{"codigo_puesto":"050011403","coddane":"05001","DEPNOMBRE":"ANTIOQUIA","MUNNOMBRE":"MEDELLIN","PUESNOMBRE":"I.E.MARISCAL ROBLEDO","Latitud":6.2753220729,"Longitud":-75.5958987642,"total_votos":4051,"ganador":"ABELARDO DE LA ESPRIELLA","votos_ganador":2233,"margen":0.1481,"codmpio":"05001"},{"codigo_puesto":"050011404","coddane":"05001","DEPNOMBRE":"ANTIOQUIA","MUNNOMBRE":"MEDELLIN","PUESNOMBRE":"SEC.ESC. SANTA MARGARITA","Latitud":6.2766303245,"Longitud":-75.6158760617,"total_votos":5173,"ganador":"ABELARDO DE LA ESPRIELLA","votos_ganador":2680,"margen":0.0857,"codmpio":"05001"},{"codigo_puesto":"050011405","coddane":"05001","DEPNOMBRE":"ANTIOQUIA","MUNNOMBRE":"MEDELLIN","PUESNOMBRE":"INSTITUTO FERRINI - SEDE ROBLEDO","Latitud":6.2780037842,"Longitud":-75.592269519,"total_votos":9459,"ganador":"ABELARDO DE LA ESPRIELLA","votos_ganador":5073,"margen":0.1112,"codmpio":"05001"},{"codigo_puesto":"050011406","coddane":"05001","DEPNOMBRE":"ANTIOQUIA","MUNNOMBRE":"MEDELLIN","PUESNOMBRE":"I.E.CAMILO MORA CARRASQUILLA","Latitud":6.2782792443,"Longitud":-75.6061662204,"total_votos":2554,"ganador":"ABELARDO DE LA ESPRIELLA","votos_ganador":1330,"margen":0.0826,"codmpio":"05001"},{"codigo_puesto":"050011407","coddane":"05001","DEPNOMBRE":"ANTIOQUIA","MUNNOMBRE":"MEDELLIN","PUESNOMBRE":"COL MAYOR DE ANTIOQUIA","Latitud":6.2732389466,"Longitud":-75.5920186303,"total_votos":4073,"ganador":"ABELARDO DE LA ESPRIELLA","votos_ganador":2015,"margen":0.0215,"codmpio":"05001"},{"codigo_puesto":"050011408","coddane":"05001","DEPNOMBRE":"ANTIOQUIA","MUNNOMBRE":"MEDELLIN","PUESNOMBRE":"IE BARRIO OLAYA HERRERA","Latitud":6.2741539202,"Longitud":-75.6098868115,"total_votos":1373,"ganador":"IVÁN CEPEDA CASTRO","votos_ganador":762,"margen":0.1634,"codmpio":"05001"},{"codigo_puesto":"050011501","coddane":"05001","DEPNOMBRE":"ANTIOQUIA","MUNNOMBRE":"MEDELLIN","PUESNOMBRE":"I.E. JUAN DE DIOS CARVAJAL","Latitud":6.2556827188,"Longitud":-75.5508542768,"total_votos":6210,"ganador":"ABELARDO DE LA ESPRIELLA","votos_ganador":4188,"margen":0.3895,"codmpio":"05001"},{"codigo_puesto":"050011502","coddane":"05001","DEPNOMBRE":"ANTIOQUIA","MUNNOMBRE":"MEDELLIN","PUESNOMBRE":"I.E. JUAN DE LA CRUZ POSADA","Latitud":6.2537738159,"Longitud":-75.5546442201,"total_votos":3414,"ganador":"ABELARDO DE LA ESPRIELLA","votos_ganador":2372,"margen":0.4298,"codmpio":"05001"},{"codigo_puesto":"050011503","coddane":"05001","DEPNOMBRE":"ANTIOQUIA","MUNNOMBRE":"MEDELLIN","PUESNOMBRE":"I.E.JOSE CELESTINO MUTIS","Latitud":6.2588857193,"Longitud":-75.5568615978,"total_votos":4279,"ganador":"ABELARDO DE LA ESPRIELLA","votos_ganador":2633,"margen":0.2665,"codmpio":"05001"},{"codigo_puesto":"050011504","coddane":"05001","DEPNOMBRE":"ANTIOQUIA","MUNNOMBRE":"MEDELLIN","PUESNOMBRE":"I.T.M. (CAMPUS FRATERNIDAD)","Latitud":6.2453399269,"Longitud":-75.5510514867,"total_votos":2715,"ganador":"IVÁN CEPEDA CASTRO","votos_ganador":1338,"margen":0.019,"codmpio":"05001"},{"codigo_puesto":"050011505","coddane":"05001","DEPNOMBRE":"ANTIOQUIA","MUNNOMBRE":"MEDELLIN","PUESNOMBRE":"SEC.ESC.JULIA AGUDELO","Latitud":6.249824563,"Longitud":-75.5489175623,"total_votos":11956,"ganador":"ABELARDO DE LA ESPRIELLA","votos_ganador":7067,"margen":0.228,"codmpio":"05001"},{"codigo_puesto":"050011506","coddane":"05001","DEPNOMBRE":"ANTIOQUIA","MUNNOMBRE":"MEDELLIN","PUESNOMBRE":"SEC.ESC.NIÑO JESUS DE PRAGA","Latitud":6.2485942505,"Longitud":-75.5458064015,"total_votos":3530,"ganador":"IVÁN CEPEDA CASTRO","votos_ganador":1735,"margen":0.0197,"codmpio":"05001"},{"codigo_puesto":"050011507","coddane":"05001","DEPNOMBRE":"ANTIOQUIA","MUNNOMBRE":"MEDELLIN","PUESNOMBRE":"I.E.SOL DE ORIENTE","Latitud":6.2448895901,"Longitud":-75.5407350999,"total_votos":1970,"ganador":"IVÁN CEPEDA CASTRO","votos_ganador":1146,"margen":0.2179,"codmpio":"05001"},{"codigo_puesto":"050011508","coddane":"05001","DEPNOMBRE":"ANTIOQUIA","MUNNOMBRE":"MEDELLIN","PUESNOMBRE":"I.E. LUIS CARLOS GALAN SARMIENTO","Latitud":6.2502862448,"Longitud":-75.5467260425,"total_votos":3545,"ganador":"IVÁN CEPEDA CASTRO","votos_ganador":2100,"margen":0.2227,"codmpio":"05001"},{"codigo_puesto":"050011509","coddane":"05001","DEPNOMBRE":"ANTIOQUIA","MUNNOMBRE":"MEDELLIN","PUESNOMBRE":"IE ESC NORMAL SUPERIOR DE MEDELLIN","Latitud":6.254047246,"Longitud":-75.54872567,"total_votos":2037,"ganador":"ABELARDO DE LA ESPRIELLA","votos_ganador":996,"margen":0.0117,"codmpio":"05001"},{"codigo_puesto":"050011601","coddane":"05001","DEPNOMBRE":"ANTIOQUIA","MUNNOMBRE":"MEDELLIN","PUESNOMBRE":"SEC. ESC. VILLA TURBAY","Latitud":6.2358278965,"Longitud":-75.530116773,"total_votos":2746,"ganador":"IVÁN CEPEDA CASTRO","votos_ganador":1406,"margen":0.0762,"codmpio":"05001"},{"codigo_puesto":"050011602","coddane":"05001","DEPNOMBRE":"ANTIOQUIA","MUNNOMBRE":"MEDELLIN","PUESNOMBRE":"SECCION ESCUELA HOGAR ANTIOQUIA","Latitud":6.2340710915,"Longitud":-75.5389167506,"total_votos":1759,"ganador":"ABELARDO DE LA ESPRIELLA","votos_ganador":989,"margen":0.169,"codmpio":"05001"},{"codigo_puesto":"050011603","coddane":"05001","DEPNOMBRE":"ANTIOQUIA","MUNNOMBRE":"MEDELLIN","PUESNOMBRE":"SEC ESC SOR MARIA LUISA COURBIN","Latitud":6.2337510241,"Longitud":-75.5383920852,"total_votos":5039,"ganador":"ABELARDO DE LA ESPRIELLA","votos_ganador":3067,"margen":0.2647,"codmpio":"05001"},{"codigo_puesto":"050011604","coddane":"05001","DEPNOMBRE":"ANTIOQUIA","MUNNOMBRE":"MEDELLIN","PUESNOMBRE":"I.E. SAN FRANCISCO DE ASIS","Latitud":6.2385734077,"Longitud":-75.5395474835,"total_votos":4982,"ganador":"ABELARDO DE LA ESPRIELLA","votos_ganador":2536,"margen":0.0633,"codmpio":"05001"},{"codigo_puesto":"050011605","coddane":"05001","DEPNOMBRE":"ANTIOQUIA","MUNNOMBRE":"MEDELLIN","PUESNOMBRE":"IE FELIX HENAO BOTERO","Latitud":6.2409129466,"Longitud":-75.5466627764,"total_votos":5463,"ganador":"ABELARDO DE LA ESPRIELLA","votos_ganador":3022,"margen":0.1506,"codmpio":"05001"},{"codigo_puesto":"050011606","coddane":"05001","DEPNOMBRE":"ANTIOQUIA","MUNNOMBRE":"MEDELLIN","PUESNOMBRE":"IE GABRIEL GARCIA MARQUEZ","Latitud":6.2366532367,"Longitud":-75.5334414026,"total_votos":866,"ganador":"IVÁN CEPEDA CASTRO","votos_ganador":481,"margen":0.159,"codmpio":"05001"},{"codigo_puesto":"050011701","coddane":"05001","DEPNOMBRE":"ANTIOQUIA","MUNNOMBRE":"MEDELLIN","PUESNOMBRE":"I.E.GUADALUPANO LA SALLE","Latitud":6.2363373097,"Longitud":-75.5443172965,"total_votos":7656,"ganador":"ABELARDO DE LA ESPRIELLA","votos_ganador":4854,"margen":0.3071,"codmpio":"05001"},{"codigo_puesto":"050011702","coddane":"05001","DEPNOMBRE":"ANTIOQUIA","MUNNOMBRE":"MEDELLIN","PUESNOMBRE":"IE MERCEDITAS GOMEZ MARTINEZ","Latitud":6.2337121733,"Longitud":-75.5467129712,"total_votos":7402,"ganador":"ABELARDO DE LA ESPRIELLA","votos_ganador":4373,"margen":0.2258,"codmpio":"05001"},{"codigo_puesto":"050011703","coddane":"05001","DEPNOMBRE":"ANTIOQUIA","MUNNOMBRE":"MEDELLIN","PUESNOMBRE":"I.E. MANUEL JOSÉ CAYZEDO","Latitud":6.2414847404,"Longitud":-75.55218121,"total_votos":6052,"ganador":"ABELARDO DE LA ESPRIELLA","votos_ganador":3270,"margen":0.1195,"codmpio":"05001"},{"codigo_puesto":"050011704","coddane":"05001","DEPNOMBRE":"ANTIOQUIA","MUNNOMBRE":"MEDELLIN","PUESNOMBRE":"I.E. LA MILAGROSA","Latitud":6.2352329706,"Longitud":-75.5547939681,"total_votos":11922,"ganador":"ABELARDO DE LA ESPRIELLA","votos_ganador":8087,"margen":0.4036,"codmpio":"05001"},{"codigo_puesto":"050011705","coddane":"05001","DEPNOMBRE":"ANTIOQUIA","MUNNOMBRE":"MEDELLIN","PUESNOMBRE":"COLEGIO EUCARISTICO","Latitud":6.2355429481,"Longitud":-75.553596136,"total_votos":5496,"ganador":"ABELARDO DE LA ESPRIELLA","votos_ganador":3191,"margen":0.1927,"codmpio":"05001"},{"codigo_puesto":"050011706","coddane":"05001","DEPNOMBRE":"ANTIOQUIA","MUNNOMBRE":"MEDELLIN","PUESNOMBRE":"SENA - SEDE BUENOS AIRES","Latitud":6.2394785941,"Longitud":-75.5523086,"total_votos":2041,"ganador":"IVÁN CEPEDA CASTRO","votos_ganador":1135,"margen":0.1476,"codmpio":"05001"},{"codigo_puesto":"050011707","coddane":"05001","DEPNOMBRE":"ANTIOQUIA","MUNNOMBRE":"MEDELLIN","PUESNOMBRE":"IE ARZOBISPO TULIO BOTERO SALAZAR","Latitud":6.229959268,"Longitud":-75.5324075033,"total_votos":2121,"ganador":"IVÁN CEPEDA CASTRO","votos_ganador":1069,"margen":0.0429,"codmpio":"05001"},{"codigo_puesto":"050011708","coddane":"05001","DEPNOMBRE":"ANTIOQUIA","MUNNOMBRE":"MEDELLIN","PUESNOMBRE":"IE MADRE LAURA","Latitud":6.235315745,"Longitud":-75.5508062451,"total_votos":2698,"ganador":"ABELARDO DE LA ESPRIELLA","votos_ganador":1515,"margen":0.1609,"codmpio":"05001"},{"codigo_puesto":"050011709","coddane":"05001","DEPNOMBRE":"ANTIOQUIA","MUNNOMBRE":"MEDELLIN","PUESNOMBRE":"ECHAVARRIA","Latitud":6.2349111938,"Longitud":-75.54241158,"total_votos":3158,"ganador":"ABELARDO DE LA ESPRIELLA","votos_ganador":1639,"margen":0.066,"codmpio":"05001"},{"codigo_puesto":"050011801","coddane":"05001","DEPNOMBRE":"ANTIOQUIA","MUNNOMBRE":"MEDELLIN","PUESNOMBRE":"I.E. GABRIELA GOMEZ CARVAJAL","Latitud":6.2314973994,"Longitud":-75.5598219398,"total_votos":7035,"ganador":"ABELARDO DE LA ESPRIELLA","votos_ganador":4106,"margen":0.2135,"codmpio":"05001"},{"codigo_puesto":"050011802","coddane":"05001","DEPNOMBRE":"ANTIOQUIA","MUNNOMBRE":"MEDELLIN","PUESNOMBRE":"IE FEDERICO OZANAM","Latitud":6.240489417,"Longitud":-75.5584159115,"total_votos":8132,"ganador":"ABELARDO DE LA ESPRIELLA","votos_ganador":5533,"margen":0.4054,"codmpio":"05001"},{"codigo_puesto":"050011803","coddane":"05001","DEPNOMBRE":"ANTIOQUIA","MUNNOMBRE":"MEDELLIN","PUESNOMBRE":"ESC NORMAL SUPERIOR ANTIOQUEÑA","Latitud":6.2424625786,"Longitud":-75.5582033976,"total_votos":6889,"ganador":"ABELARDO DE LA ESPRIELLA","votos_ganador":4382,"margen":0.3098,"codmpio":"05001"},{"codigo_puesto":"050011804","coddane":"05001","DEPNOMBRE":"ANTIOQUIA","MUNNOMBRE":"MEDELLIN","PUESNOMBRE":"SEC. ESC. JOSE DE SAN MARTIN","Latitud":6.2374843028,"Longitud":-75.5627515558,"total_votos":8890,"ganador":"ABELARDO DE LA ESPRIELLA","votos_ganador":5603,"margen":0.3096,"codmpio":"05001"},{"codigo_puesto":"050011805","coddane":"05001","DEPNOMBRE":"ANTIOQUIA","MUNNOMBRE":"MEDELLIN","PUESNOMBRE":"SEC. ESC. JUAN CANCIO RESTREPO","Latitud":6.2384736798,"Longitud":-75.5554700448,"total_votos":1419,"ganador":"ABELARDO DE LA ESPRIELLA","votos_ganador":764,"margen":0.1056,"codmpio":"05001"},{"codigo_puesto":"050011901","coddane":"05001","DEPNOMBRE":"ANTIOQUIA","MUNNOMBRE":"MEDELLIN","PUESNOMBRE":"I.E. TULIO OSPINA","Latitud":6.2591381869,"Longitud":-75.5661647547,"total_votos":5680,"ganador":"ABELARDO DE LA ESPRIELLA","votos_ganador":3760,"margen":0.3611,"codmpio":"05001"},{"codigo_puesto":"050011902","coddane":"05001","DEPNOMBRE":"ANTIOQUIA","MUNNOMBRE":"MEDELLIN","PUESNOMBRE":"SEC. COL. AGUSTIN NIETO CABALLERO","Latitud":6.2526670713,"Longitud":-75.5573188063,"total_votos":2405,"ganador":"ABELARDO DE LA ESPRIELLA","votos_ganador":1556,"margen":0.3373,"codmpio":"05001"},{"codigo_puesto":"050011903","coddane":"05001","DEPNOMBRE":"ANTIOQUIA","MUNNOMBRE":"MEDELLIN","PUESNOMBRE":"COLEGIO SALESIANO EL SUFRAGIO","Latitud":6.2482936949,"Longitud":-75.5580742206,"total_votos":9245,"ganador":"ABELARDO DE LA ESPRIELLA","votos_ganador":6400,"margen":0.4252,"codmpio":"05001"},{"codigo_puesto":"050011904","coddane":"05001","DEPNOMBRE":"ANTIOQUIA","MUNNOMBRE":"MEDELLIN","PUESNOMBRE":"CEFA","Latitud":6.2464709024,"Longitud":-75.5617822228,"total_votos":11312,"ganador":"ABELARDO DE LA ESPRIELLA","votos_ganador":6926,"margen":0.2552,"codmpio":"05001"},{"codigo_puesto":"050011905","coddane":"05001","DEPNOMBRE":"ANTIOQUIA","MUNNOMBRE":"MEDELLIN","PUESNOMBRE":"I.E. HECTOR ABAD GOMEZ","Latitud":6.2458294068,"Longitud":-75.5604212244,"total_votos":7680,"ganador":"ABELARDO DE LA ESPRIELLA","votos_ganador":4493,"margen":0.207,"codmpio":"05001"},{"codigo_puesto":"050011906","coddane":"05001","DEPNOMBRE":"ANTIOQUIA","MUNNOMBRE":"MEDELLIN","PUESNOMBRE":"I.E. JAVIERA LONDOÑO","Latitud":6.248634495,"Longitud":-75.5600100695,"total_votos":3119,"ganador":"ABELARDO DE LA ESPRIELLA","votos_ganador":1669,"margen":0.1057,"codmpio":"05001"},{"codigo_puesto":"050011907","coddane":"05001","DEPNOMBRE":"ANTIOQUIA","MUNNOMBRE":"MEDELLIN","PUESNOMBRE":"I.T.M. (PRADO CENTRO)","Latitud":6.257656039,"Longitud":-75.5661269265,"total_votos":2353,"ganador":"ABELARDO DE LA ESPRIELLA","votos_ganador":1195,"margen":0.0524,"codmpio":"05001"},{"codigo_puesto":"050012001","coddane":"05001","DEPNOMBRE":"ANTIOQUIA","MUNNOMBRE":"MEDELLIN","PUESNOMBRE":"CENTRO COMERCIAL SAN DIEGO","Latitud":6.2351042614,"Longitud":-75.5692212579,"total_votos":10275,"ganador":"ABELARDO DE LA ESPRIELLA","votos_ganador":8185,"margen":0.6334,"codmpio":"05001"},{"codigo_puesto":"050012002","coddane":"05001","DEPNOMBRE":"ANTIOQUIA","MUNNOMBRE":"MEDELLIN","PUESNOMBRE":"ALCALDIA MUNICIPAL (SOTANO)","Latitud":6.2448143414,"Longitud":-75.5736932582,"total_votos":8265,"ganador":"ABELARDO DE LA ESPRIELLA","votos_ganador":5551,"margen":0.3761,"codmpio":"05001"},{"codigo_puesto":"050012003","coddane":"05001","DEPNOMBRE":"ANTIOQUIA","MUNNOMBRE":"MEDELLIN","PUESNOMBRE":"SENA","Latitud":6.254920706,"Longitud":-75.5752146313,"total_votos":3296,"ganador":"ABELARDO DE LA ESPRIELLA","votos_ganador":2133,"margen":0.329,"codmpio":"05001"},{"codigo_puesto":"050012004","coddane":"05001","DEPNOMBRE":"ANTIOQUIA","MUNNOMBRE":"MEDELLIN","PUESNOMBRE":"UNIVERSIDAD CLARETIANA","Latitud":6.2604302901,"Longitud":-75.5700410419,"total_votos":1849,"ganador":"IVÁN CEPEDA CASTRO","votos_ganador":1255,"margen":0.3929,"codmpio":"05001"},{"codigo_puesto":"050012005","coddane":"05001","DEPNOMBRE":"ANTIOQUIA","MUNNOMBRE":"MEDELLIN","PUESNOMBRE":"PLAZA MINORISTA JOSE MARIA VILLA","Latitud":6.2576581561,"Longitud":-75.5734699504,"total_votos":604,"ganador":"ABELARDO DE LA ESPRIELLA","votos_ganador":391,"margen":0.3209,"codmpio":"05001"},{"codigo_puesto":"050012101","coddane":"05001","DEPNOMBRE":"ANTIOQUIA","MUNNOMBRE":"MEDELLIN","PUESNOMBRE":"INSTITUTO JORGE ROBLEDO","Latitud":6.2583598727,"Longitud":-75.5817694955,"total_votos":6635,"ganador":"ABELARDO DE LA ESPRIELLA","votos_ganador":4467,"margen":0.3909,"codmpio":"05001"},{"codigo_puesto":"050012102","coddane":"05001","DEPNOMBRE":"ANTIOQUIA","MUNNOMBRE":"MEDELLIN","PUESNOMBRE":"I.E. MATER DEI","Latitud":6.2474750364,"Longitud":-75.5860753752,"total_votos":6860,"ganador":"ABELARDO DE LA ESPRIELLA","votos_ganador":5592,"margen":0.668,"codmpio":"05001"},{"codigo_puesto":"050012103","coddane":"05001","DEPNOMBRE":"ANTIOQUIA","MUNNOMBRE":"MEDELLIN","PUESNOMBRE":"I.E. MARCO FIDEL SUAREZ","Latitud":6.2576913468,"Longitud":-75.5860482337,"total_votos":6585,"ganador":"ABELARDO DE LA ESPRIELLA","votos_ganador":4712,"margen":0.4727,"codmpio":"05001"},{"codigo_puesto":"050012104","coddane":"05001","DEPNOMBRE":"ANTIOQUIA","MUNNOMBRE":"MEDELLIN","PUESNOMBRE":"ESCOLAPIAS","Latitud":6.2656322523,"Longitud":-75.5906139764,"total_votos":8732,"ganador":"ABELARDO DE LA ESPRIELLA","votos_ganador":6427,"margen":0.5126,"codmpio":"05001"},{"codigo_puesto":"050012105","coddane":"05001","DEPNOMBRE":"ANTIOQUIA","MUNNOMBRE":"MEDELLIN","PUESNOMBRE":"MAYORES","Latitud":6.2540625308,"Longitud":-75.5866542353,"total_votos":2849,"ganador":"ABELARDO DE LA ESPRIELLA","votos_ganador":1910,"margen":0.3761,"codmpio":"05001"},{"codigo_puesto":"050012106","coddane":"05001","DEPNOMBRE":"ANTIOQUIA","MUNNOMBRE":"MEDELLIN","PUESNOMBRE":"SEC. ESC. CARLOS OBANDO VELASCO","Latitud":6.2467349673,"Longitud":-75.5854983843,"total_votos":1586,"ganador":"ABELARDO DE LA ESPRIELLA","votos_ganador":1119,"margen":0.4589,"codmpio":"05001"},{"codigo_puesto":"050012107","coddane":"05001","DEPNOMBRE":"ANTIOQUIA","MUNNOMBRE":"MEDELLIN","PUESNOMBRE":"INST. UNIVERSITARIA SALAZAR Y HERRERA","Latitud":6.260312348,"Longitud":-75.5853604985,"total_votos":301,"ganador":"ABELARDO DE LA ESPRIELLA","votos_ganador":180,"margen":0.2121,"codmpio":"05001"},{"codigo_puesto":"050012201","coddane":"05001","DEPNOMBRE":"ANTIOQUIA","MUNNOMBRE":"MEDELLIN","PUESNOMBRE":"SEC.ESC. AGRUPACION COLOMBIA","Latitud":6.2507175224,"Longitud":-75.5951191126,"total_votos":7505,"ganador":"ABELARDO DE LA ESPRIELLA","votos_ganador":6192,"margen":0.6844,"codmpio":"05001"},{"codigo_puesto":"050012202","coddane":"05001","DEPNOMBRE":"ANTIOQUIA","MUNNOMBRE":"MEDELLIN","PUESNOMBRE":"I.E. LUCRECIO JARAMILLO VELEZ","Latitud":6.2462577977,"Longitud":-75.5995303187,"total_votos":10447,"ganador":"ABELARDO DE LA ESPRIELLA","votos_ganador":9002,"margen":0.7606,"codmpio":"05001"},{"codigo_puesto":"050012203","coddane":"05001","DEPNOMBRE":"ANTIOQUIA","MUNNOMBRE":"MEDELLIN","PUESNOMBRE":"COLEGIO BETHLEMITAS","Latitud":6.2408094252,"Longitud":-75.5954922144,"total_votos":6179,"ganador":"ABELARDO DE LA ESPRIELLA","votos_ganador":4954,"margen":0.6478,"codmpio":"05001"},{"codigo_puesto":"050012204","coddane":"05001","DEPNOMBRE":"ANTIOQUIA","MUNNOMBRE":"MEDELLIN","PUESNOMBRE":"COL. SAN IGNACIO DE LOYOLA - SD INFANTIL","Latitud":6.2543341667,"Longitud":-75.5929611947,"total_votos":3994,"ganador":"ABELARDO DE LA ESPRIELLA","votos_ganador":2741,"margen":0.4064,"codmpio":"05001"},{"codigo_puesto":"050012205","coddane":"05001","DEPNOMBRE":"ANTIOQUIA","MUNNOMBRE":"MEDELLIN","PUESNOMBRE":"CORP. UNIVERSITARIA ADVENTISTA - UNAC","Latitud":6.2408849959,"Longitud":-75.6093520252,"total_votos":5266,"ganador":"ABELARDO DE LA ESPRIELLA","votos_ganador":4037,"margen":0.5838,"codmpio":"05001"},{"codigo_puesto":"050012206","coddane":"05001","DEPNOMBRE":"ANTIOQUIA","MUNNOMBRE":"MEDELLIN","PUESNOMBRE":"UNIVERSIDAD PONTIFICIA BOLIVARIANA","Latitud":6.2423560258,"Longitud":-75.5893623546,"total_votos":10385,"ganador":"ABELARDO DE LA ESPRIELLA","votos_ganador":7185,"margen":0.4239,"codmpio":"05001"},{"codigo_puesto":"050012301","coddane":"05001","DEPNOMBRE":"ANTIOQUIA","MUNNOMBRE":"MEDELLIN","PUESNOMBRE":"SEC. ESC. SANTA LUCIA","Latitud":6.2578100496,"Longitud":-75.6056809587,"total_votos":7273,"ganador":"ABELARDO DE LA ESPRIELLA","votos_ganador":5326,"margen":0.5066,"codmpio":"05001"},{"codigo_puesto":"050012302","coddane":"05001","DEPNOMBRE":"ANTIOQUIA","MUNNOMBRE":"MEDELLIN","PUESNOMBRE":"I.E. CONCEJO DE MEDELLIN","Latitud":6.2582756203,"Longitud":-75.6005217063,"total_votos":12648,"ganador":"ABELARDO DE LA ESPRIELLA","votos_ganador":9598,"margen":0.5589,"codmpio":"05001"},{"codigo_puesto":"050012303","coddane":"05001","DEPNOMBRE":"ANTIOQUIA","MUNNOMBRE":"MEDELLIN","PUESNOMBRE":"I.E. LA PIEDAD","Latitud":6.2692288287,"Longitud":-75.5966513153,"total_votos":5896,"ganador":"ABELARDO DE LA ESPRIELLA","votos_ganador":3961,"margen":0.3896,"codmpio":"05001"},{"codigo_puesto":"050012304","coddane":"05001","DEPNOMBRE":"ANTIOQUIA","MUNNOMBRE":"MEDELLIN","PUESNOMBRE":"I.E.SANTA ROSA DE LIMA","Latitud":6.2555956368,"Longitud":-75.5994828223,"total_votos":5370,"ganador":"ABELARDO DE LA ESPRIELLA","votos_ganador":3344,"margen":0.2909,"codmpio":"05001"},{"codigo_puesto":"050012305","coddane":"05001","DEPNOMBRE":"ANTIOQUIA","MUNNOMBRE":"MEDELLIN","PUESNOMBRE":"IE LOLA GONZALEZ","Latitud":6.2572655834,"Longitud":-75.6115481841,"total_votos":4492,"ganador":"ABELARDO DE LA ESPRIELLA","votos_ganador":2734,"margen":0.2593,"codmpio":"05001"},{"codigo_puesto":"050012306","coddane":"05001","DEPNOMBRE":"ANTIOQUIA","MUNNOMBRE":"MEDELLIN","PUESNOMBRE":"INST. FERRINI - SD CALASANZ","Latitud":6.2651152912,"Longitud":-75.5986717881,"total_votos":5599,"ganador":"ABELARDO DE LA ESPRIELLA","votos_ganador":3585,"margen":0.3175,"codmpio":"05001"},{"codigo_puesto":"050012401","coddane":"05001","DEPNOMBRE":"ANTIOQUIA","MUNNOMBRE":"MEDELLIN","PUESNOMBRE":"COLEGIO LATINO","Latitud":6.2490573263,"Longitud":-75.603469395,"total_votos":5296,"ganador":"ABELARDO DE LA ESPRIELLA","votos_ganador":4288,"margen":0.6495,"codmpio":"05001"},{"codigo_puesto":"050012402","coddane":"05001","DEPNOMBRE":"ANTIOQUIA","MUNNOMBRE":"MEDELLIN","PUESNOMBRE":"SEC.ESC.RAFAEL URIBE URIBE","Latitud":6.248690842,"Longitud":-75.60430264,"total_votos":2414,"ganador":"ABELARDO DE LA ESPRIELLA","votos_ganador":1625,"margen":0.3978,"codmpio":"05001"},{"codigo_puesto":"050012403","coddane":"05001","DEPNOMBRE":"ANTIOQUIA","MUNNOMBRE":"MEDELLIN","PUESNOMBRE":"SEC. ESC. PEDRO DE CASTRO","Latitud":6.2486799666,"Longitud":-75.6082621376,"total_votos":4038,"ganador":"ABELARDO DE LA ESPRIELLA","votos_ganador":3500,"margen":0.7606,"codmpio":"05001"},{"codigo_puesto":"050012404","coddane":"05001","DEPNOMBRE":"ANTIOQUIA","MUNNOMBRE":"MEDELLIN","PUESNOMBRE":"I.E.FRANCISCO ANTONIO ZEA","Latitud":6.2437817372,"Longitud":-75.6039200039,"total_votos":4307,"ganador":"ABELARDO DE LA ESPRIELLA","votos_ganador":3216,"margen":0.5278,"codmpio":"05001"},{"codigo_puesto":"050012405","coddane":"05001","DEPNOMBRE":"ANTIOQUIA","MUNNOMBRE":"MEDELLIN","PUESNOMBRE":"I.E AMERICA","Latitud":6.2457092918,"Longitud":-75.6156878035,"total_votos":3022,"ganador":"ABELARDO DE LA ESPRIELLA","votos_ganador":2026,"margen":0.3844,"codmpio":"05001"},{"codigo_puesto":"050012406","coddane":"05001","DEPNOMBRE":"ANTIOQUIA","MUNNOMBRE":"MEDELLIN","PUESNOMBRE":"C4TA CIUDADELA","Latitud":6.2534708806,"Longitud":-75.6137856228,"total_votos":2187,"ganador":"ABELARDO DE LA ESPRIELLA","votos_ganador":1237,"margen":0.1686,"codmpio":"05001"},{"codigo_puesto":"050012407","coddane":"05001","DEPNOMBRE":"ANTIOQUIA","MUNNOMBRE":"MEDELLIN","PUESNOMBRE":"LICEO SALAZAR Y HERRERA","Latitud":6.2487111955,"Longitud":-75.6058783517,"total_votos":11391,"ganador":"ABELARDO DE LA ESPRIELLA","votos_ganador":8238,"margen":0.4866,"codmpio":"05001"},{"codigo_puesto":"050012501","coddane":"05001","DEPNOMBRE":"ANTIOQUIA","MUNNOMBRE":"MEDELLIN","PUESNOMBRE":"I.E. BLANQUIZAL","Latitud":6.2754074024,"Longitud":-75.6054544738,"total_votos":4163,"ganador":"IVÁN CEPEDA CASTRO","votos_ganador":2083,"margen":0.0423,"codmpio":"05001"},{"codigo_puesto":"050012502","coddane":"05001","DEPNOMBRE":"ANTIOQUIA","MUNNOMBRE":"MEDELLIN","PUESNOMBRE":"SEC. ESC. REPUBLICA DE PANAMA","Latitud":6.2629741647,"Longitud":-75.6061726886,"total_votos":4288,"ganador":"ABELARDO DE LA ESPRIELLA","votos_ganador":2970,"margen":0.4348,"codmpio":"05001"},{"codigo_puesto":"050012503","coddane":"05001","DEPNOMBRE":"ANTIOQUIA","MUNNOMBRE":"MEDELLIN","PUESNOMBRE":"I.E JUAN XXIII","Latitud":6.261667546,"Longitud":-75.610483076,"total_votos":3990,"ganador":"ABELARDO DE LA ESPRIELLA","votos_ganador":1973,"margen":0.0265,"codmpio":"05001"},{"codigo_puesto":"050012504","coddane":"05001","DEPNOMBRE":"ANTIOQUIA","MUNNOMBRE":"MEDELLIN","PUESNOMBRE":"SEC. ESC. MONSEÑOR PERDOMO","Latitud":6.2561940607,"Longitud":-75.6141498684,"total_votos":7069,"ganador":"ABELARDO DE LA ESPRIELLA","votos_ganador":5122,"margen":0.492,"codmpio":"05001"},{"codigo_puesto":"050012505","coddane":"05001","DEPNOMBRE":"ANTIOQUIA","MUNNOMBRE":"MEDELLIN","PUESNOMBRE":"SEC.ESC.PIO XII","Latitud":6.2564587924,"Longitud":-75.6139656751,"total_votos":5573,"ganador":"ABELARDO DE LA ESPRIELLA","votos_ganador":3650,"margen":0.3584,"codmpio":"05001"},{"codigo_puesto":"050012506","coddane":"05001","DEPNOMBRE":"ANTIOQUIA","MUNNOMBRE":"MEDELLIN","PUESNOMBRE":"I.E.STELLA VELEZ LONDOÑO","Latitud":6.2682895307,"Longitud":-75.6160129158,"total_votos":1490,"ganador":"IVÁN CEPEDA CASTRO","votos_ganador":715,"margen":0.0014,"codmpio":"05001"},{"codigo_puesto":"050012507","coddane":"05001","DEPNOMBRE":"ANTIOQUIA","MUNNOMBRE":"MEDELLIN","PUESNOMBRE":"SEC ESC JUAN DE DIOS ARANZAZU","Latitud":6.2554134961,"Longitud":-75.6199631874,"total_votos":2451,"ganador":"ABELARDO DE LA ESPRIELLA","votos_ganador":1340,"margen":0.1356,"codmpio":"05001"},{"codigo_puesto":"050012601","coddane":"05001","DEPNOMBRE":"ANTIOQUIA","MUNNOMBRE":"MEDELLIN","PUESNOMBRE":"I.E.LA INDEPENDENCIA","Latitud":6.2530400574,"Longitud":-75.6247248063,"total_votos":8320,"ganador":"ABELARDO DE LA ESPRIELLA","votos_ganador":5118,"margen":0.2853,"codmpio":"05001"},{"codigo_puesto":"050012602","coddane":"05001","DEPNOMBRE":"ANTIOQUIA","MUNNOMBRE":"MEDELLIN","PUESNOMBRE":"SEC.ESC.EL SOCORRO","Latitud":6.2595527035,"Longitud":-75.6185430187,"total_votos":3618,"ganador":"IVÁN CEPEDA CASTRO","votos_ganador":1840,"margen":0.067,"codmpio":"05001"},{"codigo_puesto":"050012603","coddane":"05001","DEPNOMBRE":"ANTIOQUIA","MUNNOMBRE":"MEDELLIN","PUESNOMBRE":"SEC. ESC. BETANIA","Latitud":6.2462939111,"Longitud":-75.6226885277,"total_votos":6082,"ganador":"ABELARDO DE LA ESPRIELLA","votos_ganador":3964,"margen":0.3554,"codmpio":"05001"},{"codigo_puesto":"050012604","coddane":"05001","DEPNOMBRE":"ANTIOQUIA","MUNNOMBRE":"MEDELLIN","PUESNOMBRE":"I.E.EL CORAZON","Latitud":6.2473451313,"Longitud":-75.6298617903,"total_votos":2493,"ganador":"ABELARDO DE LA ESPRIELLA","votos_ganador":1215,"margen":0.027,"codmpio":"05001"},{"codigo_puesto":"050012605","coddane":"05001","DEPNOMBRE":"ANTIOQUIA","MUNNOMBRE":"MEDELLIN","PUESNOMBRE":"I.E.EDUARDO SANTOS","Latitud":6.2587324791,"Longitud":-75.6289704108,"total_votos":3447,"ganador":"ABELARDO DE LA ESPRIELLA","votos_ganador":1789,"margen":0.0784,"codmpio":"05001"},{"codigo_puesto":"050012606","coddane":"05001","DEPNOMBRE":"ANTIOQUIA","MUNNOMBRE":"MEDELLIN","PUESNOMBRE":"I.E. CARLOS VIECO ORTIZ","Latitud":6.2554130902,"Longitud":-75.6199653018,"total_votos":4473,"ganador":"ABELARDO DE LA ESPRIELLA","votos_ganador":2391,"margen":0.1067,"codmpio":"05001"},{"codigo_puesto":"050012607","coddane":"05001","DEPNOMBRE":"ANTIOQUIA","MUNNOMBRE":"MEDELLIN","PUESNOMBRE":"SEC. ESC. AMOR AL NIÑO","Latitud":6.2532491893,"Longitud":-75.6248593686,"total_votos":2882,"ganador":"IVÁN CEPEDA CASTRO","votos_ganador":1490,"margen":0.0809,"codmpio":"05001"},{"codigo_puesto":"050012608","coddane":"05001","DEPNOMBRE":"ANTIOQUIA","MUNNOMBRE":"MEDELLIN","PUESNOMBRE":"I.E FUNDADORES","Latitud":6.2594074172,"Longitud":-75.6165769431,"total_votos":4037,"ganador":"ABELARDO DE LA ESPRIELLA","votos_ganador":2900,"margen":0.4826,"codmpio":"05001"},{"codigo_puesto":"050012609","coddane":"05001","DEPNOMBRE":"ANTIOQUIA","MUNNOMBRE":"MEDELLIN","PUESNOMBRE":"SEC. ESC. VEINTE DE JULIO","Latitud":6.2520820397,"Longitud":-75.6183808793,"total_votos":518,"ganador":"ABELARDO DE LA ESPRIELLA","votos_ganador":272,"margen":0.0751,"codmpio":"05001"},{"codigo_puesto":"050012701","coddane":"05001","DEPNOMBRE":"ANTIOQUIA","MUNNOMBRE":"MEDELLIN","PUESNOMBRE":"COL.SANTA MARIA DEL ROSARIO","Latitud":6.192582642,"Longitud":-75.5653559505,"total_votos":13999,"ganador":"ABELARDO DE LA ESPRIELLA","votos_ganador":12935,"margen":0.8752,"codmpio":"05001"},{"codigo_puesto":"050012702","coddane":"05001","DEPNOMBRE":"ANTIOQUIA","MUNNOMBRE":"MEDELLIN","PUESNOMBRE":"COL.MARYMOUNT","Latitud":6.2055896816,"Longitud":-75.5561721213,"total_votos":11799,"ganador":"ABELARDO DE LA ESPRIELLA","votos_ganador":10972,"margen":0.8826,"codmpio":"05001"},{"codigo_puesto":"050012703","coddane":"05001","DEPNOMBRE":"ANTIOQUIA","MUNNOMBRE":"MEDELLIN","PUESNOMBRE":"COLEGIO SAN LUCAS","Latitud":6.1812967397,"Longitud":-75.5660631493,"total_votos":5580,"ganador":"ABELARDO DE LA ESPRIELLA","votos_ganador":5108,"margen":0.8544,"codmpio":"05001"},{"codigo_puesto":"050012704","coddane":"05001","DEPNOMBRE":"ANTIOQUIA","MUNNOMBRE":"MEDELLIN","PUESNOMBRE":"SEC. ESC. GUILLERMO ECHAVARRIA MISAS","Latitud":6.210649911,"Longitud":-75.5713495832,"total_votos":2136,"ganador":"ABELARDO DE LA ESPRIELLA","votos_ganador":1761,"margen":0.6844,"codmpio":"05001"},{"codigo_puesto":"050012705","coddane":"05001","DEPNOMBRE":"ANTIOQUIA","MUNNOMBRE":"MEDELLIN","PUESNOMBRE":"COLEGIO CAMPESTRE MANZANARES","Latitud":6.1847582328,"Longitud":-75.5564793914,"total_votos":927,"ganador":"ABELARDO DE LA ESPRIELLA","votos_ganador":856,"margen":0.8772,"codmpio":"05001"},{"codigo_puesto":"050012706","coddane":"05001","DEPNOMBRE":"ANTIOQUIA","MUNNOMBRE":"MEDELLIN","PUESNOMBRE":"COLEGIO SAN JOSE DE LA SALLE","Latitud":6.2040331761,"Longitud":-75.5468359926,"total_votos":831,"ganador":"ABELARDO DE LA ESPRIELLA","votos_ganador":742,"margen":0.8142,"codmpio":"05001"},{"codigo_puesto":"050012801","coddane":"05001","DEPNOMBRE":"ANTIOQUIA","MUNNOMBRE":"MEDELLIN","PUESNOMBRE":"POLITECNICO JAIME ISAZA CADAVID","Latitud":6.2130564205,"Longitud":-75.577248003,"total_votos":10750,"ganador":"ABELARDO DE LA ESPRIELLA","votos_ganador":8297,"margen":0.5808,"codmpio":"05001"},{"codigo_puesto":"050012802","coddane":"05001","DEPNOMBRE":"ANTIOQUIA","MUNNOMBRE":"MEDELLIN","PUESNOMBRE":"I.E. INEM JOSE FELIX DE RESTREPO","Latitud":6.2065432344,"Longitud":-75.577756683,"total_votos":8236,"ganador":"ABELARDO DE LA ESPRIELLA","votos_ganador":7079,"margen":0.7588,"codmpio":"05001"},{"codigo_puesto":"050012803","coddane":"05001","DEPNOMBRE":"ANTIOQUIA","MUNNOMBRE":"MEDELLIN","PUESNOMBRE":"UNIVERSIDAD EAFIT","Latitud":6.1996145158,"Longitud":-75.5792119556,"total_votos":10456,"ganador":"ABELARDO DE LA ESPRIELLA","votos_ganador":9450,"margen":0.8407,"codmpio":"05001"},{"codigo_puesto":"050012804","coddane":"05001","DEPNOMBRE":"ANTIOQUIA","MUNNOMBRE":"MEDELLIN","PUESNOMBRE":"ENSEÑANZA","Latitud":6.1949366907,"Longitud":-75.5743729977,"total_votos":6736,"ganador":"ABELARDO DE LA ESPRIELLA","votos_ganador":6264,"margen":0.8842,"codmpio":"05001"},{"codigo_puesto":"050012805","coddane":"05001","DEPNOMBRE":"ANTIOQUIA","MUNNOMBRE":"MEDELLIN","PUESNOMBRE":"COL. SAN JOSE DE LAS VEGAS","Latitud":6.1986208536,"Longitud":-75.5767581641,"total_votos":9183,"ganador":"ABELARDO DE LA ESPRIELLA","votos_ganador":7902,"margen":0.7619,"codmpio":"05001"},{"codigo_puesto":"050012806","coddane":"05001","DEPNOMBRE":"ANTIOQUIA","MUNNOMBRE":"MEDELLIN","PUESNOMBRE":"COLEGIO PINARES ALTOVERDE","Latitud":6.1911084061,"Longitud":-75.5705694075,"total_votos":1138,"ganador":"ABELARDO DE LA ESPRIELLA","votos_ganador":1022,"margen":0.8201,"codmpio":"05001"},{"codigo_puesto":"050012901","coddane":"05001","DEPNOMBRE":"ANTIOQUIA","MUNNOMBRE":"MEDELLIN","PUESNOMBRE":"I.E. CAMILO C. RESTREPO","Latitud":6.2257529814,"Longitud":-75.585382808,"total_votos":4903,"ganador":"ABELARDO DE LA ESPRIELLA","votos_ganador":3409,"margen":0.4436,"codmpio":"05001"},{"codigo_puesto":"050012902","coddane":"05001","DEPNOMBRE":"ANTIOQUIA","MUNNOMBRE":"MEDELLIN","PUESNOMBRE":"I.E.BENJAMIN HERRERA","Latitud":6.2264501478,"Longitud":-75.5796335901,"total_votos":6070,"ganador":"ABELARDO DE LA ESPRIELLA","votos_ganador":4349,"margen":0.4737,"codmpio":"05001"},{"codigo_puesto":"050012903","coddane":"05001","DEPNOMBRE":"ANTIOQUIA","MUNNOMBRE":"MEDELLIN","PUESNOMBRE":"I.E.CRISTO REY","Latitud":6.2052886332,"Longitud":-75.5817887979,"total_votos":6839,"ganador":"ABELARDO DE LA ESPRIELLA","votos_ganador":5246,"margen":0.573,"codmpio":"05001"},{"codigo_puesto":"050012904","coddane":"05001","DEPNOMBRE":"ANTIOQUIA","MUNNOMBRE":"MEDELLIN","PUESNOMBRE":"SEC. ESC. REPUBLICA DE COSTA RICA","Latitud":6.2028386753,"Longitud":-75.5880814138,"total_votos":6108,"ganador":"ABELARDO DE LA ESPRIELLA","votos_ganador":4356,"margen":0.4677,"codmpio":"05001"},{"codigo_puesto":"050012905","coddane":"05001","DEPNOMBRE":"ANTIOQUIA","MUNNOMBRE":"MEDELLIN","PUESNOMBRE":"SEC.ESC.LA COLINA","Latitud":6.1974196661,"Longitud":-75.5917542482,"total_votos":5441,"ganador":"ABELARDO DE LA ESPRIELLA","votos_ganador":3572,"margen":0.3559,"codmpio":"05001"},{"codigo_puesto":"050012906","coddane":"05001","DEPNOMBRE":"ANTIOQUIA","MUNNOMBRE":"MEDELLIN","PUESNOMBRE":"I.E. LA SALLE DE CAMPOAMOR","Latitud":6.212403168,"Longitud":-75.5875289851,"total_votos":5885,"ganador":"ABELARDO DE LA ESPRIELLA","votos_ganador":4178,"margen":0.4624,"codmpio":"05001"},{"codigo_puesto":"050012907","coddane":"05001","DEPNOMBRE":"ANTIOQUIA","MUNNOMBRE":"MEDELLIN","PUESNOMBRE":"SEC ESC CRISTO REY APOLO","Latitud":6.2045083504,"Longitud":-75.583687767,"total_votos":2696,"ganador":"ABELARDO DE LA ESPRIELLA","votos_ganador":1690,"margen":0.2866,"codmpio":"05001"},{"codigo_puesto":"050012908","coddane":"05001","DEPNOMBRE":"ANTIOQUIA","MUNNOMBRE":"MEDELLIN","PUESNOMBRE":"SEC. ESC. SANTISIMA TRINIDAD","Latitud":6.2280238841,"Longitud":-75.5864392179,"total_votos":42,"ganador":"ABELARDO DE LA ESPRIELLA","votos_ganador":23,"margen":0.0952,"codmpio":"05001"},{"codigo_puesto":"050013001","coddane":"05001","DEPNOMBRE":"ANTIOQUIA","MUNNOMBRE":"MEDELLIN","PUESNOMBRE":"I.E. FATIMA NUTIBARA","Latitud":6.2367091841,"Longitud":-75.5832441938,"total_votos":7578,"ganador":"ABELARDO DE LA ESPRIELLA","votos_ganador":5822,"margen":0.5806,"codmpio":"05001"},{"codigo_puesto":"050013002","coddane":"05001","DEPNOMBRE":"ANTIOQUIA","MUNNOMBRE":"MEDELLIN","PUESNOMBRE":"SEC. ESC. SOFIA OSPINA DE NAVARRO","Latitud":6.2350952416,"Longitud":-75.5829747352,"total_votos":3850,"ganador":"ABELARDO DE LA ESPRIELLA","votos_ganador":3291,"margen":0.7413,"codmpio":"05001"},{"codigo_puesto":"050013003","coddane":"05001","DEPNOMBRE":"ANTIOQUIA","MUNNOMBRE":"MEDELLIN","PUESNOMBRE":"I.E.JUAN MARIA CESPEDES","Latitud":6.235387521,"Longitud":-75.5968132374,"total_votos":11056,"ganador":"ABELARDO DE LA ESPRIELLA","votos_ganador":9027,"margen":0.668,"codmpio":"05001"},{"codigo_puesto":"050013004","coddane":"05001","DEPNOMBRE":"ANTIOQUIA","MUNNOMBRE":"MEDELLIN","PUESNOMBRE":"I.E. GUILLERMO VALENCIA","Latitud":6.2267596272,"Longitud":-75.5989446245,"total_votos":5836,"ganador":"ABELARDO DE LA ESPRIELLA","votos_ganador":4178,"margen":0.4735,"codmpio":"05001"},{"codigo_puesto":"050013005","coddane":"05001","DEPNOMBRE":"ANTIOQUIA","MUNNOMBRE":"MEDELLIN","PUESNOMBRE":"UNID.DEPORTIVA ANDRES ESCOBAR","Latitud":6.2328834579,"Longitud":-75.5873212553,"total_votos":3442,"ganador":"ABELARDO DE LA ESPRIELLA","votos_ganador":2338,"margen":0.4038,"codmpio":"05001"},{"codigo_puesto":"050013006","coddane":"05001","DEPNOMBRE":"ANTIOQUIA","MUNNOMBRE":"MEDELLIN","PUESNOMBRE":"LICEO SAN RAFAEL","Latitud":6.2321730556,"Longitud":-75.5994336236,"total_votos":5600,"ganador":"ABELARDO DE LA ESPRIELLA","votos_ganador":3926,"margen":0.4386,"codmpio":"05001"},{"codigo_puesto":"050013007","coddane":"05001","DEPNOMBRE":"ANTIOQUIA","MUNNOMBRE":"MEDELLIN","PUESNOMBRE":"COLEGIO SAN JUAN BOSCO","Latitud":6.2292453746,"Longitud":-75.5940050842,"total_votos":2758,"ganador":"ABELARDO DE LA ESPRIELLA","votos_ganador":1920,"margen":0.4366,"codmpio":"05001"},{"codigo_puesto":"050013008","coddane":"05001","DEPNOMBRE":"ANTIOQUIA","MUNNOMBRE":"MEDELLIN","PUESNOMBRE":"IE YERMO Y PARRES","Latitud":6.2292539045,"Longitud":-75.5977483643,"total_votos":1268,"ganador":"ABELARDO DE LA ESPRIELLA","votos_ganador":794,"margen":0.2984,"codmpio":"05001"},{"codigo_puesto":"050013009","coddane":"05001","DEPNOMBRE":"ANTIOQUIA","MUNNOMBRE":"MEDELLIN","PUESNOMBRE":"SECCION ESCUELA CARLOS FRANCO","Latitud":6.2279504723,"Longitud":-75.5975780274,"total_votos":629,"ganador":"ABELARDO DE LA ESPRIELLA","votos_ganador":391,"margen":0.2883,"codmpio":"05001"},{"codigo_puesto":"050013010","coddane":"05001","DEPNOMBRE":"ANTIOQUIA","MUNNOMBRE":"MEDELLIN","PUESNOMBRE":"INSTITUCION EDUCATIVA ROSALIA SUAREZ","Latitud":6.2326878705,"Longitud":-75.5971931689,"total_votos":3765,"ganador":"ABELARDO DE LA ESPRIELLA","votos_ganador":2568,"margen":0.4017,"codmpio":"05001"},{"codigo_puesto":"050013101","coddane":"05001","DEPNOMBRE":"ANTIOQUIA","MUNNOMBRE":"MEDELLIN","PUESNOMBRE":"I.E. OCTAVIO HARRY - JACQUELINE KENNEDY","Latitud":6.2223476642,"Longitud":-75.5958344785,"total_votos":5578,"ganador":"ABELARDO DE LA ESPRIELLA","votos_ganador":4286,"margen":0.5731,"codmpio":"05001"},{"codigo_puesto":"050013102","coddane":"05001","DEPNOMBRE":"ANTIOQUIA","MUNNOMBRE":"MEDELLIN","PUESNOMBRE":"I.E.JOSE MARIA BERNAL","Latitud":6.2203026506,"Longitud":-75.5934982727,"total_votos":8203,"ganador":"ABELARDO DE LA ESPRIELLA","votos_ganador":6228,"margen":0.5582,"codmpio":"05001"},{"codigo_puesto":"050013103","coddane":"05001","DEPNOMBRE":"ANTIOQUIA","MUNNOMBRE":"MEDELLIN","PUESNOMBRE":"INSTITUTO SAN CARLOS","Latitud":6.2233009498,"Longitud":-75.6001668584,"total_votos":8281,"ganador":"ABELARDO DE LA ESPRIELLA","votos_ganador":6744,"margen":0.672,"codmpio":"05001"},{"codigo_puesto":"050013104","coddane":"05001","DEPNOMBRE":"ANTIOQUIA","MUNNOMBRE":"MEDELLIN","PUESNOMBRE":"I.E.ALCALDIA DE MEDELLIN","Latitud":6.2126272841,"Longitud":-75.6036006155,"total_votos":7692,"ganador":"ABELARDO DE LA ESPRIELLA","votos_ganador":5382,"margen":0.4458,"codmpio":"05001"},{"codigo_puesto":"050013105","coddane":"05001","DEPNOMBRE":"ANTIOQUIA","MUNNOMBRE":"MEDELLIN","PUESNOMBRE":"COLEGIO PADRE MANYANET","Latitud":6.2196846401,"Longitud":-75.6088453406,"total_votos":6133,"ganador":"ABELARDO DE LA ESPRIELLA","votos_ganador":4736,"margen":0.5863,"codmpio":"05001"},{"codigo_puesto":"050013106","coddane":"05001","DEPNOMBRE":"ANTIOQUIA","MUNNOMBRE":"MEDELLIN","PUESNOMBRE":"I.E. CAPILLA DEL ROSARIO","Latitud":6.2051563862,"Longitud":-75.6019875088,"total_votos":3702,"ganador":"ABELARDO DE LA ESPRIELLA","votos_ganador":2430,"margen":0.3633,"codmpio":"05001"},{"codigo_puesto":"050013107","coddane":"05001","DEPNOMBRE":"ANTIOQUIA","MUNNOMBRE":"MEDELLIN","PUESNOMBRE":"IE ANTONIO RICAURTE","Latitud":6.2113275746,"Longitud":-75.6031486396,"total_votos":4464,"ganador":"ABELARDO DE LA ESPRIELLA","votos_ganador":2554,"margen":0.1797,"codmpio":"05001"},{"codigo_puesto":"050013108","coddane":"05001","DEPNOMBRE":"ANTIOQUIA","MUNNOMBRE":"MEDELLIN","PUESNOMBRE":"COL LA INMACULADA","Latitud":6.2211423202,"Longitud":-75.5986170489,"total_votos":8484,"ganador":"ABELARDO DE LA ESPRIELLA","votos_ganador":6368,"margen":0.5415,"codmpio":"05001"},{"codigo_puesto":"050013201","coddane":"05001","DEPNOMBRE":"ANTIOQUIA","MUNNOMBRE":"MEDELLIN","PUESNOMBRE":"I.E.RAMON GIRALDO CEBALLOS","Latitud":6.2264837786,"Longitud":-75.6045128697,"total_votos":7619,"ganador":"ABELARDO DE LA ESPRIELLA","votos_ganador":5713,"margen":0.5358,"codmpio":"05001"},{"codigo_puesto":"050013202","coddane":"05001","DEPNOMBRE":"ANTIOQUIA","MUNNOMBRE":"MEDELLIN","PUESNOMBRE":"UNIVERSIDAD DE MEDELLIN","Latitud":6.2315900726,"Longitud":-75.6099796263,"total_votos":9543,"ganador":"ABELARDO DE LA ESPRIELLA","votos_ganador":6826,"margen":0.4791,"codmpio":"05001"},{"codigo_puesto":"050013203","coddane":"05001","DEPNOMBRE":"ANTIOQUIA","MUNNOMBRE":"MEDELLIN","PUESNOMBRE":"I.E HORACIO MUÑOZ SUESCUN","Latitud":6.2343334765,"Longitud":-75.609422325,"total_votos":5521,"ganador":"ABELARDO DE LA ESPRIELLA","votos_ganador":4041,"margen":0.5067,"codmpio":"05001"},{"codigo_puesto":"050013204","coddane":"05001","DEPNOMBRE":"ANTIOQUIA","MUNNOMBRE":"MEDELLIN","PUESNOMBRE":"I.E.REPUBLICA DE VENEZUELA","Latitud":6.2347693032,"Longitud":-75.6145057278,"total_votos":4711,"ganador":"ABELARDO DE LA ESPRIELLA","votos_ganador":3331,"margen":0.4703,"codmpio":"05001"},{"codigo_puesto":"050013205","coddane":"05001","DEPNOMBRE":"ANTIOQUIA","MUNNOMBRE":"MEDELLIN","PUESNOMBRE":"I. E. SAN ROBERTO BELARMINO","Latitud":6.2356345877,"Longitud":-75.6061813982,"total_votos":3859,"ganador":"ABELARDO DE LA ESPRIELLA","votos_ganador":2348,"margen":0.2566,"codmpio":"05001"},{"codigo_puesto":"050013206","coddane":"05001","DEPNOMBRE":"ANTIOQUIA","MUNNOMBRE":"MEDELLIN","PUESNOMBRE":"INST. SALESIANO PEDRO JUSTO BERRIO","Latitud":6.2367936877,"Longitud":-75.6112290402,"total_votos":1550,"ganador":"ABELARDO DE LA ESPRIELLA","votos_ganador":967,"margen":0.2885,"codmpio":"05001"},{"codigo_puesto":"050013207","coddane":"05001","DEPNOMBRE":"ANTIOQUIA","MUNNOMBRE":"MEDELLIN","PUESNOMBRE":"IE PEDRO OCTAVIO AMADO","Latitud":6.2220764909,"Longitud":-75.6105420549,"total_votos":1318,"ganador":"ABELARDO DE LA ESPRIELLA","votos_ganador":718,"margen":0.128,"codmpio":"05001"},{"codigo_puesto":"050019001","coddane":"05001","DEPNOMBRE":"ANTIOQUIA","MUNNOMBRE":"MEDELLIN","PUESNOMBRE":"ESTADIO ATANASIO GIRARDOT","Latitud":6.2567821082,"Longitud":-75.5901706529,"total_votos":17686,"ganador":"ABELARDO DE LA ESPRIELLA","votos_ganador":13152,"margen":0.5281,"codmpio":"05001"},{"codigo_puesto":"050019801","coddane":"05001","DEPNOMBRE":"ANTIOQUIA","MUNNOMBRE":"MEDELLIN","PUESNOMBRE":"MEDELLIN","Latitud":6.2835613014,"Longitud":-75.6280858137,"total_votos":47,"ganador":"IVÁN CEPEDA CASTRO","votos_ganador":30,"margen":0.3043,"codmpio":"05001"},{"codigo_puesto":"050019802","coddane":"05001","DEPNOMBRE":"ANTIOQUIA","MUNNOMBRE":"MEDELLIN","PUESNOMBRE":"MEDE","Latitud":6.2835399721,"Longitud":-75.6281233602,"total_votos":52,"ganador":"IVÁN CEPEDA CASTRO","votos_ganador":34,"margen":0.36,"codmpio":"05001"},{"codigo_puesto":"050019803","coddane":"05001","DEPNOMBRE":"ANTIOQUIA","MUNNOMBRE":"MEDELLIN","PUESNOMBRE":"CENTRO CARLOS LLERAS RESTREPO","Latitud":6.2852513339,"Longitud":-75.6025791698,"total_votos":127,"ganador":"IVÁN CEPEDA CASTRO","votos_ganador":66,"margen":0.056,"codmpio":"05001"},{"codigo_puesto":"050019901","coddane":"05001","DEPNOMBRE":"ANTIOQUIA","MUNNOMBRE":"MEDELLIN","PUESNOMBRE":"CENTRO EDUCATIVO EL MANZANILLO","Latitud":6.206705674,"Longitud":-75.6141764091,"total_votos":900,"ganador":"ABELARDO DE LA ESPRIELLA","votos_ganador":654,"margen":0.5052,"codmpio":"05001"},{"codigo_puesto":"050019902","coddane":"05001","DEPNOMBRE":"ANTIOQUIA","MUNNOMBRE":"MEDELLIN","PUESNOMBRE":"C.E. MARIA PAULINA TABORDA","Latitud":6.2478893235,"Longitud":-75.6362051146,"total_votos":224,"ganador":"ABELARDO DE LA ESPRIELLA","votos_ganador":142,"margen":0.3148,"codmpio":"05001"},{"codigo_puesto":"050019903","coddane":"05001","DEPNOMBRE":"ANTIOQUIA","MUNNOMBRE":"MEDELLIN","PUESNOMBRE":"I.E. DEBORA ARANGO PEREZ","Latitud":6.2237851635,"Longitud":-75.6263357793,"total_votos":5797,"ganador":"ABELARDO DE LA ESPRIELLA","votos_ganador":3203,"margen":0.1445,"codmpio":"05001"},{"codigo_puesto":"050019904","coddane":"05001","DEPNOMBRE":"ANTIOQUIA","MUNNOMBRE":"MEDELLIN","PUESNOMBRE":"BALAGUER","Latitud":6.2342106965,"Longitud":-75.6266386496,"total_votos":464,"ganador":"ABELARDO DE LA ESPRIELLA","votos_ganador":300,"margen":0.3333,"codmpio":"05001"},{"codigo_puesto":"050019910","coddane":"05001","DEPNOMBRE":"ANTIOQUIA","MUNNOMBRE":"MEDELLIN","PUESNOMBRE":"IE FE Y ALEGRIA EL LIMONAR","Latitud":6.1746659752,"Longitud":-75.6420677322,"total_votos":5851,"ganador":"ABELARDO DE LA ESPRIELLA","votos_ganador":2783,"margen":0.0,"codmpio":"05001"},{"codigo_puesto":"050019917","coddane":"05001","DEPNOMBRE":"ANTIOQUIA","MUNNOMBRE":"MEDELLIN","PUESNOMBRE":"IE HECTOR ROGELIO MONTOYA","Latitud":6.3433602043,"Longitud":-75.6882486058,"total_votos":1790,"ganador":"ABELARDO DE LA ESPRIELLA","votos_ganador":1240,"margen":0.4427,"codmpio":"05001"},{"codigo_puesto":"050019933","coddane":"05001","DEPNOMBRE":"ANTIOQUIA","MUNNOMBRE":"MEDELLIN","PUESNOMBRE":"CASA DE GOBIERNO SANTA ELENA","Latitud":6.2095679917,"Longitud":-75.4976222479,"total_votos":2387,"ganador":"ABELARDO DE LA ESPRIELLA","votos_ganador":1709,"margen":0.4771,"codmpio":"05001"},{"codigo_puesto":"050019934","coddane":"05001","DEPNOMBRE":"ANTIOQUIA","MUNNOMBRE":"MEDELLIN","PUESNOMBRE":"COLISEO SANTA ELENA","Latitud":6.2107840758,"Longitud":-75.4971001556,"total_votos":3317,"ganador":"ABELARDO DE LA ESPRIELLA","votos_ganador":1875,"margen":0.1733,"codmpio":"05001"},{"codigo_puesto":"050019935","coddane":"05001","DEPNOMBRE":"ANTIOQUIA","MUNNOMBRE":"MEDELLIN","PUESNOMBRE":"C.E. JUAN ANDRES PATIÑO","Latitud":6.2319789471,"Longitud":-75.4799755784,"total_votos":421,"ganador":"ABELARDO DE LA ESPRIELLA","votos_ganador":240,"margen":0.1794,"codmpio":"05001"},{"codigo_puesto":"050019936","coddane":"05001","DEPNOMBRE":"ANTIOQUIA","MUNNOMBRE":"MEDELLIN","PUESNOMBRE":"C.E. MEDIA LUNA","Latitud":6.2383795535,"Longitud":-75.5176584479,"total_votos":161,"ganador":"ABELARDO DE LA ESPRIELLA","votos_ganador":108,"margen":0.3846,"codmpio":"05001"},{"codigo_puesto":"050020000","coddane":"05002","DEPNOMBRE":"ANTIOQUIA","MUNNOMBRE":"ABEJORRAL","PUESNOMBRE":"I.E. FUNDACION CELIA DUQUE","Latitud":5.7912917538,"Longitud":-75.427043438,"total_votos":7624,"ganador":"ABELARDO DE LA ESPRIELLA","votos_ganador":6128,"margen":0.6558,"codmpio":"05002"},{"codigo_puesto":"050029801","coddane":"05002","DEPNOMBRE":"ANTIOQUIA","MUNNOMBRE":"ABEJORRAL","PUESNOMBRE":"CARCEL MUNICIPAL","Latitud":5.791921524,"Longitud":-75.4269790649,"total_votos":10,"ganador":"ABELARDO DE LA ESPRIELLA","votos_ganador":6,"margen":0.2,"codmpio":"05002"},{"codigo_puesto":"050029901","coddane":"05002","DEPNOMBRE":"ANTIOQUIA","MUNNOMBRE":"ABEJORRAL","PUESNOMBRE":"IER PANTANILLO","Latitud":5.7297927908,"Longitud":-75.4908761705,"total_votos":545,"ganador":"ABELARDO DE LA ESPRIELLA","votos_ganador":502,"margen":0.8872,"codmpio":"05002"},{"codigo_puesto":"050029909","coddane":"05002","DEPNOMBRE":"ANTIOQUIA","MUNNOMBRE":"ABEJORRAL","PUESNOMBRE":"CHAGUALAL IER ZOILA DUQUE BAENA","Latitud":5.7989666964,"Longitud":-75.5113077164,"total_votos":288,"ganador":"ABELARDO DE LA ESPRIELLA","votos_ganador":245,"margen":0.75,"codmpio":"05002"},{"codigo_puesto":"050029911","coddane":"05002","DEPNOMBRE":"ANTIOQUIA","MUNNOMBRE":"ABEJORRAL","PUESNOMBRE":"GUAICO GRANDE IER CELIA DUQUE","Latitud":5.9129153698,"Longitud":-75.4500966291,"total_votos":229,"ganador":"ABELARDO DE LA ESPRIELLA","votos_ganador":182,"margen":0.6545,"codmpio":"05002"},{"codigo_puesto":"050029917","coddane":"05002","DEPNOMBRE":"ANTIOQUIA","MUNNOMBRE":"ABEJORRAL","PUESNOMBRE":"PORTUGAL IER ZOILA DUQUE BAENA","Latitud":5.8298380707,"Longitud":-75.5019509014,"total_votos":77,"ganador":"ABELARDO DE LA ESPRIELLA","votos_ganador":64,"margen":0.6842,"codmpio":"05002"},{"codigo_puesto":"050029940","coddane":"05002","DEPNOMBRE":"ANTIOQUIA","MUNNOMBRE":"ABEJORRAL","PUESNOMBRE":"PURIMA IER CELIA DUQUE","Latitud":5.7273611047,"Longitud":-75.4410552979,"total_votos":106,"ganador":"ABELARDO DE LA ESPRIELLA","votos_ganador":89,"margen":0.7282,"codmpio":"05002"},{"codigo_puesto":"050040000","coddane":"05004","DEPNOMBRE":"ANTIOQUIA","MUNNOMBRE":"ABRIAQUI","PUESNOMBRE":"I.E LA MILAGROSA","Latitud":6.6328602363,"Longitud":-76.0637636544,"total_votos":853,"ganador":"ABELARDO DE LA ESPRIELLA","votos_ganador":741,"margen":0.7834,"codmpio":"05004"},{"codigo_puesto":"050049905","coddane":"05004","DEPNOMBRE":"ANTIOQUIA","MUNNOMBRE":"ABRIAQUI","PUESNOMBRE":"SD LA ANTIGUA I.E LA MILAGROSA","Latitud":6.7152941674,"Longitud":-76.0795597443,"total_votos":361,"ganador":"ABELARDO DE LA ESPRIELLA","votos_ganador":270,"margen":0.5429,"codmpio":"05004"},{"codigo_puesto":"050210000","coddane":"05021","DEPNOMBRE":"ANTIOQUIA","MUNNOMBRE":"ALEJANDRIA","PUESNOMBRE":"I.E. PROCESA DELGADO","Latitud":6.3790835,"Longitud":-75.1412881,"total_votos":3022,"ganador":"ABELARDO DE LA ESPRIELLA","votos_ganador":2450,"margen":0.6588,"codmpio":"05021"},{"codigo_puesto":"050300102","coddane":"05030","DEPNOMBRE":"ANTIOQUIA","MUNNOMBRE":"AMAGA","PUESNOMBRE":"I.E. NORMAL SUPERIOR AMAGA","Latitud":6.0373229077,"Longitud":-75.7046896219,"total_votos":2911,"ganador":"ABELARDO DE LA ESPRIELLA","votos_ganador":1743,"margen":0.237,"codmpio":"05030"},{"codigo_puesto":"050300201","coddane":"05030","DEPNOMBRE":"ANTIOQUIA","MUNNOMBRE":"AMAGA","PUESNOMBRE":"ESCUELA URBANA MARIA AUXILIADORA","Latitud":6.0392716232,"Longitud":-75.7040075224,"total_votos":3131,"ganador":"ABELARDO DE LA ESPRIELLA","votos_ganador":1921,"margen":0.2672,"codmpio":"05030"},{"codigo_puesto":"050300202","coddane":"05030","DEPNOMBRE":"ANTIOQUIA","MUNNOMBRE":"AMAGA","PUESNOMBRE":"COLISEO CTO JUAN MONTOYA CORREA","Latitud":6.0425135117,"Longitud":-75.7060790062,"total_votos":2717,"ganador":"ABELARDO DE LA ESPRIELLA","votos_ganador":1302,"margen":0.0058,"codmpio":"05030"},{"codigo_puesto":"050309801","coddane":"05030","DEPNOMBRE":"ANTIOQUIA","MUNNOMBRE":"AMAGA","PUESNOMBRE":"CARCEL MUNICIPAL","Latitud":6.041181,"Longitud":-75.703245,"total_votos":16,"ganador":"IVÁN CEPEDA CASTRO","votos_ganador":10,"margen":0.25,"codmpio":"05030"},{"codigo_puesto":"050309901","coddane":"05030","DEPNOMBRE":"ANTIOQUIA","MUNNOMBRE":"AMAGA","PUESNOMBRE":"I.E.R. URBANO RUIZ","Latitud":6.0248499113,"Longitud":-75.7009705785,"total_votos":477,"ganador":"ABELARDO DE LA ESPRIELLA","votos_ganador":274,"margen":0.181,"codmpio":"05030"},{"codigo_puesto":"050309903","coddane":"05030","DEPNOMBRE":"ANTIOQUIA","MUNNOMBRE":"AMAGA","PUESNOMBRE":"I.E BELISARIO BETANCUR C","Latitud":6.0663025868,"Longitud":-75.7120305168,"total_votos":469,"ganador":"ABELARDO DE LA ESPRIELLA","votos_ganador":273,"margen":0.2026,"codmpio":"05030"},{"codigo_puesto":"050309904","coddane":"05030","DEPNOMBRE":"ANTIOQUIA","MUNNOMBRE":"AMAGA","PUESNOMBRE":"I.E. SAN FERNANDO DE AMAGA","Latitud":6.031092,"Longitud":-75.7046785,"total_votos":792,"ganador":"IVÁN CEPEDA CASTRO","votos_ganador":387,"margen":0.0052,"codmpio":"05030"},{"codigo_puesto":"050309905","coddane":"05030","DEPNOMBRE":"ANTIOQUIA","MUNNOMBRE":"AMAGA","PUESNOMBRE":"BACHILLERATO","Latitud":6.0679390098,"Longitud":-75.697643372,"total_votos":1449,"ganador":"ABELARDO DE LA ESPRIELLA","votos_ganador":986,"margen":0.4016,"codmpio":"05030"},{"codigo_puesto":"050310001","coddane":"05031","DEPNOMBRE":"ANTIOQUIA","MUNNOMBRE":"AMALFI","PUESNOMBRE":"IE EDUARDO FERNANDEZ BOTERO","Latitud":6.9081634886,"Longitud":-75.0742202997,"total_votos":5295,"ganador":"ABELARDO DE LA ESPRIELLA","votos_ganador":4073,"margen":0.6092,"codmpio":"05031"},{"codigo_puesto":"050310002","coddane":"05031","DEPNOMBRE":"ANTIOQUIA","MUNNOMBRE":"AMALFI","PUESNOMBRE":"SEDE B I.E. EDUARDO FERNANDEZ BOTERO","Latitud":6.9071596358,"Longitud":-75.0734102726,"total_votos":3432,"ganador":"ABELARDO DE LA ESPRIELLA","votos_ganador":2100,"margen":0.3216,"codmpio":"05031"},{"codigo_puesto":"050319801","coddane":"05031","DEPNOMBRE":"ANTIOQUIA","MUNNOMBRE":"AMALFI","PUESNOMBRE":"CARCEL MUNICIPAL","Latitud":6.9081262103,"Longitud":-75.0756418705,"total_votos":19,"ganador":"ABELARDO DE LA ESPRIELLA","votos_ganador":8,"margen":0.0,"codmpio":"05031"},{"codigo_puesto":"050319901","coddane":"05031","DEPNOMBRE":"ANTIOQUIA","MUNNOMBRE":"AMALFI","PUESNOMBRE":"I.E.R. LA MANGUITA","Latitud":7.0278817,"Longitud":-75.0454869,"total_votos":118,"ganador":"ABELARDO DE LA ESPRIELLA","votos_ganador":70,"margen":0.4,"codmpio":"05031"},{"codigo_puesto":"050319910","coddane":"05031","DEPNOMBRE":"ANTIOQUIA","MUNNOMBRE":"AMALFI","PUESNOMBRE":"I.E.R. PORTACHUELO","Latitud":6.864595494,"Longitud":-74.88800859,"total_votos":153,"ganador":"ABELARDO DE LA ESPRIELLA","votos_ganador":101,"margen":0.4126,"codmpio":"05031"},{"codigo_puesto":"050340101","coddane":"05034","DEPNOMBRE":"ANTIOQUIA","MUNNOMBRE":"ANDES","PUESNOMBRE":"IE SAN JUAN DE LOS ANDES","Latitud":5.657329649,"Longitud":-75.8772273,"total_votos":3359,"ganador":"ABELARDO DE LA ESPRIELLA","votos_ganador":2708,"margen":0.6512,"codmpio":"05034"},{"codigo_puesto":"050340102","coddane":"05034","DEPNOMBRE":"ANTIOQUIA","MUNNOMBRE":"ANDES","PUESNOMBRE":"IE MARIA AUXILIADORA","Latitud":5.6577485592,"Longitud":-75.8767497915,"total_votos":1544,"ganador":"ABELARDO DE LA ESPRIELLA","votos_ganador":1092,"margen":0.4579,"codmpio":"05034"},{"codigo_puesto":"050340103","coddane":"05034","DEPNOMBRE":"ANTIOQUIA","MUNNOMBRE":"ANDES","PUESNOMBRE":"CAFETERITOS","Latitud":5.6590291529,"Longitud":-75.8776256102,"total_votos":1089,"ganador":"ABELARDO DE LA ESPRIELLA","votos_ganador":880,"margen":0.6573,"codmpio":"05034"},{"codigo_puesto":"050340201","coddane":"05034","DEPNOMBRE":"ANTIOQUIA","MUNNOMBRE":"ANDES","PUESNOMBRE":"IE MARCO FIDEL SUAREZ","Latitud":5.656801089,"Longitud":-75.881529753,"total_votos":2144,"ganador":"ABELARDO DE LA ESPRIELLA","votos_ganador":1717,"margen":0.6415,"codmpio":"05034"},{"codigo_puesto":"050340202","coddane":"05034","DEPNOMBRE":"ANTIOQUIA","MUNNOMBRE":"ANDES","PUESNOMBRE":"PLACA POLIDEPORTIVA","Latitud":5.6581619027,"Longitud":-75.8826737378,"total_votos":1715,"ganador":"ABELARDO DE LA ESPRIELLA","votos_ganador":1121,"margen":0.3555,"codmpio":"05034"},{"codigo_puesto":"050340301","coddane":"05034","DEPNOMBRE":"ANTIOQUIA","MUNNOMBRE":"ANDES","PUESNOMBRE":"COLISEO PEDRO ANTONIO RPO ESCO","Latitud":5.6538942391,"Longitud":-75.8757308129,"total_votos":1874,"ganador":"ABELARDO DE LA ESPRIELLA","votos_ganador":1298,"margen":0.4256,"codmpio":"05034"},{"codigo_puesto":"050340302","coddane":"05034","DEPNOMBRE":"ANTIOQUIA","MUNNOMBRE":"ANDES","PUESNOMBRE":"LICEO JUAN DE DIOS URIBE","Latitud":5.653565282,"Longitud":-75.8751674159,"total_votos":2864,"ganador":"ABELARDO DE LA ESPRIELLA","votos_ganador":2441,"margen":0.7386,"codmpio":"05034"},{"codigo_puesto":"050340303","coddane":"05034","DEPNOMBRE":"ANTIOQUIA","MUNNOMBRE":"ANDES","PUESNOMBRE":"SEDE EDUCATIVA LA AGUADA","Latitud":5.6496573087,"Longitud":-75.879496174,"total_votos":165,"ganador":"ABELARDO DE LA ESPRIELLA","votos_ganador":108,"margen":0.3416,"codmpio":"05034"},{"codigo_puesto":"050349801","coddane":"05034","DEPNOMBRE":"ANTIOQUIA","MUNNOMBRE":"ANDES","PUESNOMBRE":"CARCEL","Latitud":5.6543628618,"Longitud":-75.8813817155,"total_votos":51,"ganador":"IVÁN CEPEDA CASTRO","votos_ganador":31,"margen":0.2917,"codmpio":"05034"},{"codigo_puesto":"050349901","coddane":"05034","DEPNOMBRE":"ANTIOQUIA","MUNNOMBRE":"ANDES","PUESNOMBRE":"I.E.R. FELIPE HENAO JARAMILLO","Latitud":5.6830170401,"Longitud":-75.8361428123,"total_votos":640,"ganador":"ABELARDO DE LA ESPRIELLA","votos_ganador":539,"margen":0.7276,"codmpio":"05034"},{"codigo_puesto":"050349903","coddane":"05034","DEPNOMBRE":"ANTIOQUIA","MUNNOMBRE":"ANDES","PUESNOMBRE":"C.E.R. GABRIEL ALVAREZ RESTREPO","Latitud":5.6635353327,"Longitud":-75.9046810256,"total_votos":198,"ganador":"ABELARDO DE LA ESPRIELLA","votos_ganador":143,"margen":0.4896,"codmpio":"05034"},{"codigo_puesto":"050349905","coddane":"05034","DEPNOMBRE":"ANTIOQUIA","MUNNOMBRE":"ANDES","PUESNOMBRE":"IE SAN JOSE -SEDE PRIMARIA","Latitud":5.7349056508,"Longitud":-75.870871018,"total_votos":399,"ganador":"ABELARDO DE LA ESPRIELLA","votos_ganador":351,"margen":0.7908,"codmpio":"05034"},{"codigo_puesto":"050349906","coddane":"05034","DEPNOMBRE":"ANTIOQUIA","MUNNOMBRE":"ANDES","PUESNOMBRE":"I.E.R.CARBONERA","Latitud":5.6372966664,"Longitud":-75.856760888,"total_votos":237,"ganador":"ABELARDO DE LA ESPRIELLA","votos_ganador":158,"margen":0.3799,"codmpio":"05034"},{"codigo_puesto":"050349909","coddane":"05034","DEPNOMBRE":"ANTIOQUIA","MUNNOMBRE":"ANDES","PUESNOMBRE":"I.E.R. SANTA INES","Latitud":5.563775635,"Longitud":-75.89983399,"total_votos":709,"ganador":"ABELARDO DE LA ESPRIELLA","votos_ganador":602,"margen":0.7551,"codmpio":"05034"},{"codigo_puesto":"050349913","coddane":"05034","DEPNOMBRE":"ANTIOQUIA","MUNNOMBRE":"ANDES","PUESNOMBRE":"IE SANTA RITA","Latitud":5.6125582211,"Longitud":-75.9169573338,"total_votos":1250,"ganador":"ABELARDO DE LA ESPRIELLA","votos_ganador":1086,"margen":0.7659,"codmpio":"05034"},{"codigo_puesto":"050349917","coddane":"05034","DEPNOMBRE":"ANTIOQUIA","MUNNOMBRE":"ANDES","PUESNOMBRE":"IE TAPARTO","Latitud":5.7004427252,"Longitud":-75.9666626506,"total_votos":1101,"ganador":"ABELARDO DE LA ESPRIELLA","votos_ganador":896,"margen":0.6732,"codmpio":"05034"},{"codigo_puesto":"050349923","coddane":"05034","DEPNOMBRE":"ANTIOQUIA","MUNNOMBRE":"ANDES","PUESNOMBRE":"IE SAN PERUCHITO","Latitud":5.6533470099,"Longitud":-75.9234236481,"total_votos":508,"ganador":"ABELARDO DE LA ESPRIELLA","votos_ganador":417,"margen":0.6713,"codmpio":"05034"},{"codigo_puesto":"050360000","coddane":"05036","DEPNOMBRE":"ANTIOQUIA","MUNNOMBRE":"ANGELOPOLIS","PUESNOMBRE":"I.E SAN JOSE","Latitud":6.1103841569,"Longitud":-75.7132132236,"total_votos":2804,"ganador":"ABELARDO DE LA ESPRIELLA","votos_ganador":2017,"margen":0.4869,"codmpio":"05036"},{"codigo_puesto":"050369901","coddane":"05036","DEPNOMBRE":"ANTIOQUIA","MUNNOMBRE":"ANGELOPOLIS","PUESNOMBRE":"I.E LOS ANGELES","Latitud":6.0843873795,"Longitud":-75.7041556092,"total_votos":473,"ganador":"ABELARDO DE LA ESPRIELLA","votos_ganador":324,"margen":0.4336,"codmpio":"05036"},{"codigo_puesto":"050369970","coddane":"05036","DEPNOMBRE":"ANTIOQUIA","MUNNOMBRE":"ANGELOPOLIS","PUESNOMBRE":"C.E.R. SAN ISIDRO","Latitud":6.1200815836,"Longitud":-75.7576790761,"total_votos":35,"ganador":"ABELARDO DE LA ESPRIELLA","votos_ganador":24,"margen":0.3714,"codmpio":"05036"},{"codigo_puesto":"050380000","coddane":"05038","DEPNOMBRE":"ANTIOQUIA","MUNNOMBRE":"ANGOSTURA","PUESNOMBRE":"I.E. MARIANO DE JESUS EUSSE","Latitud":6.8838562387,"Longitud":-75.3349095583,"total_votos":5672,"ganador":"ABELARDO DE LA ESPRIELLA","votos_ganador":3376,"margen":0.3318,"codmpio":"05038"},{"codigo_puesto":"050389906","coddane":"05038","DEPNOMBRE":"ANTIOQUIA","MUNNOMBRE":"ANGOSTURA","PUESNOMBRE":"CER LA QUINTA -SEDE GABRIELA MISTRAL","Latitud":6.9051013315,"Longitud":-75.3460621834,"total_votos":436,"ganador":"ABELARDO DE LA ESPRIELLA","votos_ganador":345,"margen":0.7207,"codmpio":"05038"},{"codigo_puesto":"050389912","coddane":"05038","DEPNOMBRE":"ANTIOQUIA","MUNNOMBRE":"ANGOSTURA","PUESNOMBRE":"CER SAN FERNANDO","Latitud":6.9087173376,"Longitud":-75.2984690666,"total_votos":260,"ganador":"IVÁN CEPEDA CASTRO","votos_ganador":132,"margen":0.1478,"codmpio":"05038"},{"codigo_puesto":"050389915","coddane":"05038","DEPNOMBRE":"ANTIOQUIA","MUNNOMBRE":"ANGOSTURA","PUESNOMBRE":"IGLESIA DE LLANOS DE CUIVA","Latitud":6.8141772338,"Longitud":-75.4846398505,"total_votos":176,"ganador":"ABELARDO DE LA ESPRIELLA","votos_ganador":140,"margen":0.697,"codmpio":"05038"},{"codigo_puesto":"050400000","coddane":"05040","DEPNOMBRE":"ANTIOQUIA","MUNNOMBRE":"ANORI","PUESNOMBRE":"COLISEO LUIS RODRIGO CÁRDENAS LOPERA","Latitud":7.0738402135,"Longitud":-75.151346557,"total_votos":5403,"ganador":"IVÁN CEPEDA CASTRO","votos_ganador":2736,"margen":0.0927,"codmpio":"05040"},{"codigo_puesto":"050409903","coddane":"05040","DEPNOMBRE":"ANTIOQUIA","MUNNOMBRE":"ANORI","PUESNOMBRE":"C.E.R MERCEDES YEPES","Latitud":7.04196862,"Longitud":-75.21026548,"total_votos":310,"ganador":"IVÁN CEPEDA CASTRO","votos_ganador":213,"margen":0.4947,"codmpio":"05040"},{"codigo_puesto":"050409905","coddane":"05040","DEPNOMBRE":"ANTIOQUIA","MUNNOMBRE":"ANORI","PUESNOMBRE":"I.E.R AMANDA POSADA","Latitud":7.3810124678,"Longitud":-75.0001502154,"total_votos":233,"ganador":"IVÁN CEPEDA CASTRO","votos_ganador":140,"margen":0.327,"codmpio":"05040"},{"codigo_puesto":"050409909","coddane":"05040","DEPNOMBRE":"ANTIOQUIA","MUNNOMBRE":"ANORI","PUESNOMBRE":"C.E.R LA HONDONA","Latitud":6.986946,"Longitud":-75.153285,"total_votos":524,"ganador":"IVÁN CEPEDA CASTRO","votos_ganador":276,"margen":0.1288,"codmpio":"05040"},{"codigo_puesto":"050409913","coddane":"05040","DEPNOMBRE":"ANTIOQUIA","MUNNOMBRE":"ANORI","PUESNOMBRE":"C.E.R MADRESECA","Latitud":7.2499614668,"Longitud":-75.038503981,"total_votos":218,"ganador":"IVÁN CEPEDA CASTRO","votos_ganador":149,"margen":0.5204,"codmpio":"05040"},{"codigo_puesto":"050409915","coddane":"05040","DEPNOMBRE":"ANTIOQUIA","MUNNOMBRE":"ANORI","PUESNOMBRE":"C.E.R EL CARMÍN","Latitud":7.2008887879,"Longitud":-75.2395858022,"total_votos":332,"ganador":"IVÁN CEPEDA CASTRO","votos_ganador":229,"margen":0.5066,"codmpio":"05040"},{"codigo_puesto":"050409916","coddane":"05040","DEPNOMBRE":"ANTIOQUIA","MUNNOMBRE":"ANORI","PUESNOMBRE":"C.E.R LA CASITA","Latitud":6.937445761,"Longitud":-75.17946928,"total_votos":118,"ganador":"ABELARDO DE LA ESPRIELLA","votos_ganador":65,"margen":0.1712,"codmpio":"05040"},{"codigo_puesto":"050409937","coddane":"05040","DEPNOMBRE":"ANTIOQUIA","MUNNOMBRE":"ANORI","PUESNOMBRE":"C.E.R SANTO DOMINGO","Latitud":7.109516034,"Longitud":-75.23597351,"total_votos":68,"ganador":"IVÁN CEPEDA CASTRO","votos_ganador":60,"margen":0.8462,"codmpio":"05040"},{"codigo_puesto":"050420101","coddane":"05042","DEPNOMBRE":"ANTIOQUIA","MUNNOMBRE":"ANTIOQUIA","PUESNOMBRE":"I.E. SAN LUIS GONZAGA","Latitud":6.560234176,"Longitud":-75.8242114092,"total_votos":2694,"ganador":"ABELARDO DE LA ESPRIELLA","votos_ganador":1799,"margen":0.3785,"codmpio":"05042"},{"codigo_puesto":"050420102","coddane":"05042","DEPNOMBRE":"ANTIOQUIA","MUNNOMBRE":"ANTIOQUIA","PUESNOMBRE":"COLISEO HERNAN SEPULVEDA","Latitud":6.5654494053,"Longitud":-75.8224384312,"total_votos":3090,"ganador":"ABELARDO DE LA ESPRIELLA","votos_ganador":1963,"margen":0.3232,"codmpio":"05042"},{"codigo_puesto":"050420201","coddane":"05042","DEPNOMBRE":"ANTIOQUIA","MUNNOMBRE":"ANTIOQUIA","PUESNOMBRE":"IE ARTURO VELASQUEZ ORTIZ","Latitud":6.5519072232,"Longitud":-75.8243865478,"total_votos":3321,"ganador":"ABELARDO DE LA ESPRIELLA","votos_ganador":1990,"margen":0.241,"codmpio":"05042"},{"codigo_puesto":"050420202","coddane":"05042","DEPNOMBRE":"ANTIOQUIA","MUNNOMBRE":"ANTIOQUIA","PUESNOMBRE":"ESCUELA MARTINEZ PARDO","Latitud":6.5582834,"Longitud":-75.8311167,"total_votos":2866,"ganador":"ABELARDO DE LA ESPRIELLA","votos_ganador":1549,"margen":0.1311,"codmpio":"05042"},{"codigo_puesto":"050429901","coddane":"05042","DEPNOMBRE":"ANTIOQUIA","MUNNOMBRE":"ANTIOQUIA","PUESNOMBRE":"CER SANTA INES","Latitud":6.637689552,"Longitud":-75.8757623642,"total_votos":82,"ganador":"ABELARDO DE LA ESPRIELLA","votos_ganador":43,"margen":0.0886,"codmpio":"05042"},{"codigo_puesto":"050429902","coddane":"05042","DEPNOMBRE":"ANTIOQUIA","MUNNOMBRE":"ANTIOQUIA","PUESNOMBRE":"ESCUELA MORADITAS CENTRAL","Latitud":6.428527778,"Longitud":-75.91030556,"total_votos":258,"ganador":"ABELARDO DE LA ESPRIELLA","votos_ganador":219,"margen":0.7733,"codmpio":"05042"},{"codigo_puesto":"050429904","coddane":"05042","DEPNOMBRE":"ANTIOQUIA","MUNNOMBRE":"ANTIOQUIA","PUESNOMBRE":"CER EL PESCADO","Latitud":6.495153,"Longitud":-75.909793,"total_votos":262,"ganador":"ABELARDO DE LA ESPRIELLA","votos_ganador":226,"margen":0.7656,"codmpio":"05042"},{"codigo_puesto":"050429905","coddane":"05042","DEPNOMBRE":"ANTIOQUIA","MUNNOMBRE":"ANTIOQUIA","PUESNOMBRE":"CER CACIQUE GUASABRA","Latitud":6.490556,"Longitud":-75.948044,"total_votos":300,"ganador":"ABELARDO DE LA ESPRIELLA","votos_ganador":249,"margen":0.7232,"codmpio":"05042"},{"codigo_puesto":"050429907","coddane":"05042","DEPNOMBRE":"ANTIOQUIA","MUNNOMBRE":"ANTIOQUIA","PUESNOMBRE":"CER LAS AZULES","Latitud":6.5573240478,"Longitud":-75.9657152995,"total_votos":107,"ganador":"ABELARDO DE LA ESPRIELLA","votos_ganador":63,"margen":0.26,"codmpio":"05042"},{"codigo_puesto":"050429909","coddane":"05042","DEPNOMBRE":"ANTIOQUIA","MUNNOMBRE":"ANTIOQUIA","PUESNOMBRE":"CER MANUEL MARIA TORO","Latitud":6.6081063305,"Longitud":-75.9598075827,"total_votos":222,"ganador":"ABELARDO DE LA ESPRIELLA","votos_ganador":169,"margen":0.5505,"codmpio":"05042"},{"codigo_puesto":"050429915","coddane":"05042","DEPNOMBRE":"ANTIOQUIA","MUNNOMBRE":"ANTIOQUIA","PUESNOMBRE":"CER SOCORRO DE SABANAS","Latitud":6.4608953299,"Longitud":-75.9121891759,"total_votos":318,"ganador":"ABELARDO DE LA ESPRIELLA","votos_ganador":258,"margen":0.72,"codmpio":"05042"},{"codigo_puesto":"050440000","coddane":"05044","DEPNOMBRE":"ANTIOQUIA","MUNNOMBRE":"ANZA","PUESNOMBRE":"I.E ANZA","Latitud":6.3009133,"Longitud":-75.8544266132,"total_votos":1859,"ganador":"ABELARDO DE LA ESPRIELLA","votos_ganador":1460,"margen":0.6186,"codmpio":"05044"},{"codigo_puesto":"050449901","coddane":"05044","DEPNOMBRE":"ANTIOQUIA","MUNNOMBRE":"ANZA","PUESNOMBRE":"I.E.R. ASCENCION MONTOYA DE TORRES","Latitud":6.302486654,"Longitud":-75.9579082259,"total_votos":1354,"ganador":"ABELARDO DE LA ESPRIELLA","votos_ganador":1124,"margen":0.6979,"codmpio":"05044"},{"codigo_puesto":"050449930","coddane":"05044","DEPNOMBRE":"ANTIOQUIA","MUNNOMBRE":"ANZA","PUESNOMBRE":"I.E.R. LA CEJITA","Latitud":6.327293,"Longitud":-75.911216,"total_votos":303,"ganador":"ABELARDO DE LA ESPRIELLA","votos_ganador":253,"margen":0.7388,"codmpio":"05044"},{"codigo_puesto":"050450101","coddane":"05045","DEPNOMBRE":"ANTIOQUIA","MUNNOMBRE":"APARTADO","PUESNOMBRE":"I.E ALFONSO LOPEZ","Latitud":7.875614094,"Longitud":-76.61499204,"total_votos":4933,"ganador":"IVÁN CEPEDA CASTRO","votos_ganador":3480,"margen":0.4545,"codmpio":"05045"},{"codigo_puesto":"050450102","coddane":"05045","DEPNOMBRE":"ANTIOQUIA","MUNNOMBRE":"APARTADO","PUESNOMBRE":"I.E. POLICARPA SALAVARRIETA","Latitud":7.8772188644,"Longitud":-76.6125619654,"total_votos":5002,"ganador":"IVÁN CEPEDA CASTRO","votos_ganador":3772,"margen":0.5437,"codmpio":"05045"},{"codigo_puesto":"050450103","coddane":"05045","DEPNOMBRE":"ANTIOQUIA","MUNNOMBRE":"APARTADO","PUESNOMBRE":"I.E. LA PAZ","Latitud":7.8803200951,"Longitud":-76.610224523,"total_votos":2791,"ganador":"IVÁN CEPEDA CASTRO","votos_ganador":2249,"margen":0.6537,"codmpio":"05045"},{"codigo_puesto":"050450104","coddane":"05045","DEPNOMBRE":"ANTIOQUIA","MUNNOMBRE":"APARTADO","PUESNOMBRE":"SD 20 DE ENERO I.E. LA PAZ","Latitud":7.8796973515,"Longitud":-76.6086366509,"total_votos":1605,"ganador":"IVÁN CEPEDA CASTRO","votos_ganador":1372,"margen":0.75,"codmpio":"05045"},{"codigo_puesto":"050450201","coddane":"05045","DEPNOMBRE":"ANTIOQUIA","MUNNOMBRE":"APARTADO","PUESNOMBRE":"I. E. SAN FRANCISCO DE ASIS","Latitud":7.8814645683,"Longitud":-76.6240525425,"total_votos":6049,"ganador":"IVÁN CEPEDA CASTRO","votos_ganador":4435,"margen":0.495,"codmpio":"05045"},{"codigo_puesto":"050450202","coddane":"05045","DEPNOMBRE":"ANTIOQUIA","MUNNOMBRE":"APARTADO","PUESNOMBRE":"I. E. SAN PEDRO CLAVER","Latitud":7.8806529723,"Longitud":-76.6226528321,"total_votos":4981,"ganador":"IVÁN CEPEDA CASTRO","votos_ganador":3840,"margen":0.5864,"codmpio":"05045"},{"codigo_puesto":"050450203","coddane":"05045","DEPNOMBRE":"ANTIOQUIA","MUNNOMBRE":"APARTADO","PUESNOMBRE":"CDI ALEGRES GIRASOLES","Latitud":7.8842657626,"Longitud":-76.6227907007,"total_votos":2760,"ganador":"IVÁN CEPEDA CASTRO","votos_ganador":2214,"margen":0.643,"codmpio":"05045"},{"codigo_puesto":"050450204","coddane":"05045","DEPNOMBRE":"ANTIOQUIA","MUNNOMBRE":"APARTADO","PUESNOMBRE":"I. E. SANTA MARIA LA ANTIGUA","Latitud":7.8807029056,"Longitud":-76.6151748284,"total_votos":1114,"ganador":"IVÁN CEPEDA CASTRO","votos_ganador":867,"margen":0.5938,"codmpio":"05045"},{"codigo_puesto":"050450301","coddane":"05045","DEPNOMBRE":"ANTIOQUIA","MUNNOMBRE":"APARTADO","PUESNOMBRE":"UNIVERSIDAD COOPERATIVA","Latitud":7.8773515269,"Longitud":-76.6316581463,"total_votos":261,"ganador":"IVÁN CEPEDA CASTRO","votos_ganador":170,"margen":0.3492,"codmpio":"05045"},{"codigo_puesto":"050450302","coddane":"05045","DEPNOMBRE":"ANTIOQUIA","MUNNOMBRE":"APARTADO","PUESNOMBRE":"I.E. HERACLIO MENA PADILLA","Latitud":7.8776599097,"Longitud":-76.6296261771,"total_votos":4532,"ganador":"IVÁN CEPEDA CASTRO","votos_ganador":2467,"margen":0.1155,"codmpio":"05045"},{"codigo_puesto":"050450303","coddane":"05045","DEPNOMBRE":"ANTIOQUIA","MUNNOMBRE":"APARTADO","PUESNOMBRE":"COLEGIO ADVENTISTA","Latitud":7.8780564276,"Longitud":-76.6317090186,"total_votos":2879,"ganador":"IVÁN CEPEDA CASTRO","votos_ganador":1709,"margen":0.2229,"codmpio":"05045"},{"codigo_puesto":"050450304","coddane":"05045","DEPNOMBRE":"ANTIOQUIA","MUNNOMBRE":"APARTADO","PUESNOMBRE":"I.E CADENA LAS PLAYAS","Latitud":7.8766428965,"Longitud":-76.6251782505,"total_votos":1008,"ganador":"IVÁN CEPEDA CASTRO","votos_ganador":715,"margen":0.4712,"codmpio":"05045"},{"codigo_puesto":"050450401","coddane":"05045","DEPNOMBRE":"ANTIOQUIA","MUNNOMBRE":"APARTADO","PUESNOMBRE":"I. E. CAMPO ALEGRE","Latitud":7.8799077066,"Longitud":-76.6481173453,"total_votos":1190,"ganador":"IVÁN CEPEDA CASTRO","votos_ganador":793,"margen":0.3579,"codmpio":"05045"},{"codigo_puesto":"050450402","coddane":"05045","DEPNOMBRE":"ANTIOQUIA","MUNNOMBRE":"APARTADO","PUESNOMBRE":"I.E. MADRE LAURA","Latitud":7.8844701209,"Longitud":-76.6346540784,"total_votos":2650,"ganador":"ABELARDO DE LA ESPRIELLA","votos_ganador":1348,"margen":0.0442,"codmpio":"05045"},{"codigo_puesto":"050450403","coddane":"05045","DEPNOMBRE":"ANTIOQUIA","MUNNOMBRE":"APARTADO","PUESNOMBRE":"COLEGIO COOPERATIVO CARB","Latitud":7.885964357,"Longitud":-76.6363799784,"total_votos":3927,"ganador":"ABELARDO DE LA ESPRIELLA","votos_ganador":2439,"margen":0.2618,"codmpio":"05045"},{"codigo_puesto":"050450404","coddane":"05045","DEPNOMBRE":"ANTIOQUIA","MUNNOMBRE":"APARTADO","PUESNOMBRE":"I.E. JOSE JOAQUIN VELEZ","Latitud":7.8885849259,"Longitud":-76.6333168991,"total_votos":4647,"ganador":"ABELARDO DE LA ESPRIELLA","votos_ganador":2316,"margen":0.0212,"codmpio":"05045"},{"codigo_puesto":"050450405","coddane":"05045","DEPNOMBRE":"ANTIOQUIA","MUNNOMBRE":"APARTADO","PUESNOMBRE":"I.E JOSE CELESTINO MUTIS","Latitud":7.8951206684,"Longitud":-76.637350936,"total_votos":3136,"ganador":"IVÁN CEPEDA CASTRO","votos_ganador":1804,"margen":0.1837,"codmpio":"05045"},{"codigo_puesto":"050450406","coddane":"05045","DEPNOMBRE":"ANTIOQUIA","MUNNOMBRE":"APARTADO","PUESNOMBRE":"BETANCUR","Latitud":7.891039826,"Longitud":-76.6325336935,"total_votos":2856,"ganador":"IVÁN CEPEDA CASTRO","votos_ganador":1636,"margen":0.1791,"codmpio":"05045"},{"codigo_puesto":"050450407","coddane":"05045","DEPNOMBRE":"ANTIOQUIA","MUNNOMBRE":"APARTADO","PUESNOMBRE":"SENA REGIONAL APARTADO","Latitud":7.8908456931,"Longitud":-76.6306965982,"total_votos":426,"ganador":"IVÁN CEPEDA CASTRO","votos_ganador":305,"margen":0.4663,"codmpio":"05045"},{"codigo_puesto":"050459801","coddane":"05045","DEPNOMBRE":"ANTIOQUIA","MUNNOMBRE":"APARTADO","PUESNOMBRE":"APARTADO","Latitud":7.8045471593,"Longitud":-76.6506663532,"total_votos":61,"ganador":"IVÁN CEPEDA CASTRO","votos_ganador":49,"margen":0.6333,"codmpio":"05045"},{"codigo_puesto":"050459915","coddane":"05045","DEPNOMBRE":"ANTIOQUIA","MUNNOMBRE":"APARTADO","PUESNOMBRE":"I.E.R CHURIDO PUEBLO","Latitud":7.8657624602,"Longitud":-76.6674041748,"total_votos":1168,"ganador":"IVÁN CEPEDA CASTRO","votos_ganador":968,"margen":0.6894,"codmpio":"05045"},{"codigo_puesto":"050459921","coddane":"05045","DEPNOMBRE":"ANTIOQUIA","MUNNOMBRE":"APARTADO","PUESNOMBRE":"I.E.R PUERTO GIRON","Latitud":7.9052345502,"Longitud":-76.7368914567,"total_votos":546,"ganador":"IVÁN CEPEDA CASTRO","votos_ganador":462,"margen":0.7303,"codmpio":"05045"},{"codigo_puesto":"050459925","coddane":"05045","DEPNOMBRE":"ANTIOQUIA","MUNNOMBRE":"APARTADO","PUESNOMBRE":"I.E.R. BARTOLOME CATAÑO VALLEJO","Latitud":7.8839991395,"Longitud":-76.5599981466,"total_votos":995,"ganador":"IVÁN CEPEDA CASTRO","votos_ganador":846,"margen":0.7336,"codmpio":"05045"},{"codigo_puesto":"050459950","coddane":"05045","DEPNOMBRE":"ANTIOQUIA","MUNNOMBRE":"APARTADO","PUESNOMBRE":"I.E.R. EL REPOSO","Latitud":7.8006558836,"Longitud":-76.6561850169,"total_votos":3485,"ganador":"IVÁN CEPEDA CASTRO","votos_ganador":2459,"margen":0.4533,"codmpio":"05045"},{"codigo_puesto":"050510000","coddane":"05051","DEPNOMBRE":"ANTIOQUIA","MUNNOMBRE":"ARBOLETES","PUESNOMBRE":"I.E. MIGUEL VICENTE GARRIDO","Latitud":8.8490645885,"Longitud":-76.4262936766,"total_votos":7231,"ganador":"IVÁN CEPEDA CASTRO","votos_ganador":3779,"margen":0.0627,"codmpio":"05051"},{"codigo_puesto":"050519903","coddane":"05051","DEPNOMBRE":"ANTIOQUIA","MUNNOMBRE":"ARBOLETES","PUESNOMBRE":"C.E.R BUENOS AIRES","Latitud":8.609828697,"Longitud":-76.28036541,"total_votos":589,"ganador":"ABELARDO DE LA ESPRIELLA","votos_ganador":406,"margen":0.3928,"codmpio":"05051"},{"codigo_puesto":"050519905","coddane":"05051","DEPNOMBRE":"ANTIOQUIA","MUNNOMBRE":"ARBOLETES","PUESNOMBRE":"C.E.R EL CARMELO","Latitud":8.61293,"Longitud":-76.3823582,"total_votos":663,"ganador":"ABELARDO DE LA ESPRIELLA","votos_ganador":460,"margen":0.4132,"codmpio":"05051"},{"codigo_puesto":"050519906","coddane":"05051","DEPNOMBRE":"ANTIOQUIA","MUNNOMBRE":"ARBOLETES","PUESNOMBRE":"I.E SANTA FE DE LAS PLATAS","Latitud":8.580666376,"Longitud":-76.44337935,"total_votos":586,"ganador":"ABELARDO DE LA ESPRIELLA","votos_ganador":466,"margen":0.5986,"codmpio":"05051"},{"codigo_puesto":"050519908","coddane":"05051","DEPNOMBRE":"ANTIOQUIA","MUNNOMBRE":"ARBOLETES","PUESNOMBRE":"I.E LAS NARANJITAS","Latitud":8.529332496,"Longitud":-76.33472306,"total_votos":393,"ganador":"ABELARDO DE LA ESPRIELLA","votos_ganador":318,"margen":0.635,"codmpio":"05051"},{"codigo_puesto":"050519912","coddane":"05051","DEPNOMBRE":"ANTIOQUIA","MUNNOMBRE":"ARBOLETES","PUESNOMBRE":"I.E GUADUAL","Latitud":8.486746186,"Longitud":-76.38525051,"total_votos":807,"ganador":"ABELARDO DE LA ESPRIELLA","votos_ganador":655,"margen":0.6582,"codmpio":"05051"},{"codigo_puesto":"050519920","coddane":"05051","DEPNOMBRE":"ANTIOQUIA","MUNNOMBRE":"ARBOLETES","PUESNOMBRE":"I.E LA CANDELARIA","Latitud":8.658594039,"Longitud":-76.45188833,"total_votos":921,"ganador":"ABELARDO DE LA ESPRIELLA","votos_ganador":568,"margen":0.247,"codmpio":"05051"},{"codigo_puesto":"050519975","coddane":"05051","DEPNOMBRE":"ANTIOQUIA","MUNNOMBRE":"ARBOLETES","PUESNOMBRE":"I.E LA TRINIDAD","Latitud":8.6253371725,"Longitud":-76.5102199931,"total_votos":952,"ganador":"ABELARDO DE LA ESPRIELLA","votos_ganador":639,"margen":0.3625,"codmpio":"05051"},{"codigo_puesto":"050519980","coddane":"05051","DEPNOMBRE":"ANTIOQUIA","MUNNOMBRE":"ARBOLETES","PUESNOMBRE":"I.E PAJILLAL","Latitud":8.75697,"Longitud":-76.441067,"total_votos":358,"ganador":"IVÁN CEPEDA CASTRO","votos_ganador":206,"margen":0.1738,"codmpio":"05051"},{"codigo_puesto":"050550000","coddane":"05055","DEPNOMBRE":"ANTIOQUIA","MUNNOMBRE":"ARGELIA","PUESNOMBRE":"I.E. SANTA TERESA","Latitud":5.7313173425,"Longitud":-75.1395702487,"total_votos":3153,"ganador":"ABELARDO DE LA ESPRIELLA","votos_ganador":2665,"margen":0.7255,"codmpio":"05055"},{"codigo_puesto":"050559904","coddane":"05055","DEPNOMBRE":"ANTIOQUIA","MUNNOMBRE":"ARGELIA","PUESNOMBRE":"SD EL PITAL I.E. PBRO MARIO ANGEL","Latitud":5.6732887489,"Longitud":-75.1033218458,"total_votos":84,"ganador":"ABELARDO DE LA ESPRIELLA","votos_ganador":82,"margen":0.9524,"codmpio":"05055"},{"codigo_puesto":"050559907","coddane":"05055","DEPNOMBRE":"ANTIOQUIA","MUNNOMBRE":"ARGELIA","PUESNOMBRE":"SD EL ROSARIO I.E STA. TERESA","Latitud":5.731944444,"Longitud":-75.1025,"total_votos":106,"ganador":"ABELARDO DE LA ESPRIELLA","votos_ganador":100,"margen":0.9048,"codmpio":"05055"},{"codigo_puesto":"050559910","coddane":"05055","DEPNOMBRE":"ANTIOQUIA","MUNNOMBRE":"ARGELIA","PUESNOMBRE":"SD GUADUALITO I.E. STA TERESA","Latitud":5.7452639323,"Longitud":-74.9238009453,"total_votos":23,"ganador":"ABELARDO DE LA ESPRIELLA","votos_ganador":19,"margen":0.6522,"codmpio":"05055"},{"codigo_puesto":"050559920","coddane":"05055","DEPNOMBRE":"ANTIOQUIA","MUNNOMBRE":"ARGELIA","PUESNOMBRE":"SD BUENOS AIRES I.E. STA TERESA","Latitud":5.7002625828,"Longitud":-75.06971887,"total_votos":17,"ganador":"ABELARDO DE LA ESPRIELLA","votos_ganador":15,"margen":0.7647,"codmpio":"05055"},{"codigo_puesto":"050559925","coddane":"05055","DEPNOMBRE":"ANTIOQUIA","MUNNOMBRE":"ARGELIA","PUESNOMBRE":"SD MESONES I.E STA TERESA","Latitud":5.7341852353,"Longitud":-75.0160514677,"total_votos":15,"ganador":"ABELARDO DE LA ESPRIELLA","votos_ganador":11,"margen":0.4667,"codmpio":"05055"},{"codigo_puesto":"050559980","coddane":"05055","DEPNOMBRE":"ANTIOQUIA","MUNNOMBRE":"ARGELIA","PUESNOMBRE":"SD SAN AGUSTIN I.E. PBRO MARIO ANGEL","Latitud":5.7307771834,"Longitud":-75.1327514648,"total_votos":120,"ganador":"ABELARDO DE LA ESPRIELLA","votos_ganador":114,"margen":0.9487,"codmpio":"05055"},{"codigo_puesto":"050590000","coddane":"05059","DEPNOMBRE":"ANTIOQUIA","MUNNOMBRE":"ARMENIA","PUESNOMBRE":"I.E ROSA MESA DE MEJIA","Latitud":6.1578685712,"Longitud":-75.7864177644,"total_votos":2188,"ganador":"ABELARDO DE LA ESPRIELLA","votos_ganador":1672,"margen":0.5612,"codmpio":"05059"},{"codigo_puesto":"050599901","coddane":"05059","DEPNOMBRE":"ANTIOQUIA","MUNNOMBRE":"ARMENIA","PUESNOMBRE":"SD LA HERRADURA I.E ROSA MESA DE MEJIA","Latitud":6.1466600687,"Longitud":-75.8063594088,"total_votos":333,"ganador":"ABELARDO DE LA ESPRIELLA","votos_ganador":251,"margen":0.5446,"codmpio":"05059"},{"codigo_puesto":"050790101","coddane":"05079","DEPNOMBRE":"ANTIOQUIA","MUNNOMBRE":"BARBOSA","PUESNOMBRE":"PBRO. LUIS EDUARDO PEREZ MOLINA","Latitud":6.4350928325,"Longitud":-75.3290933874,"total_votos":3309,"ganador":"ABELARDO DE LA ESPRIELLA","votos_ganador":2234,"margen":0.3984,"codmpio":"05079"},{"codigo_puesto":"050790102","coddane":"05079","DEPNOMBRE":"ANTIOQUIA","MUNNOMBRE":"BARBOSA","PUESNOMBRE":"I.E. MANUEL JOSE CAICEDO","Latitud":6.434612574,"Longitud":-75.3273106533,"total_votos":4157,"ganador":"ABELARDO DE LA ESPRIELLA","votos_ganador":1979,"margen":0.0131,"codmpio":"05079"},{"codigo_puesto":"050790103","coddane":"05079","DEPNOMBRE":"ANTIOQUIA","MUNNOMBRE":"BARBOSA","PUESNOMBRE":"IE LUIS EDUARDO ARIAS","Latitud":6.434707271,"Longitud":-75.3287075456,"total_votos":4682,"ganador":"ABELARDO DE LA ESPRIELLA","votos_ganador":3163,"margen":0.3999,"codmpio":"05079"},{"codigo_puesto":"050790201","coddane":"05079","DEPNOMBRE":"ANTIOQUIA","MUNNOMBRE":"BARBOSA","PUESNOMBRE":"CENTRO DE EDUCACION SUPERIOR","Latitud":6.4371980655,"Longitud":-75.3305257388,"total_votos":1457,"ganador":"ABELARDO DE LA ESPRIELLA","votos_ganador":869,"margen":0.2414,"codmpio":"05079"},{"codigo_puesto":"050790202","coddane":"05079","DEPNOMBRE":"ANTIOQUIA","MUNNOMBRE":"BARBOSA","PUESNOMBRE":"COL. COOPERATIVO SIMÓN BOLIVAR","Latitud":6.4361353064,"Longitud":-75.3293437596,"total_votos":1533,"ganador":"ABELARDO DE LA ESPRIELLA","votos_ganador":968,"margen":0.3206,"codmpio":"05079"},{"codigo_puesto":"050790203","coddane":"05079","DEPNOMBRE":"ANTIOQUIA","MUNNOMBRE":"BARBOSA","PUESNOMBRE":"C.A.S DIEGO FERNANDEZ BARBOSA","Latitud":6.4380415999,"Longitud":-75.3337919087,"total_votos":1368,"ganador":"ABELARDO DE LA ESPRIELLA","votos_ganador":976,"margen":0.4867,"codmpio":"05079"},{"codigo_puesto":"050790204","coddane":"05079","DEPNOMBRE":"ANTIOQUIA","MUNNOMBRE":"BARBOSA","PUESNOMBRE":"UNIDAD DEPORTIVA LOS BUCAROS","Latitud":6.4409297415,"Longitud":-75.3305130473,"total_votos":4912,"ganador":"ABELARDO DE LA ESPRIELLA","votos_ganador":2557,"margen":0.0916,"codmpio":"05079"},{"codigo_puesto":"050790205","coddane":"05079","DEPNOMBRE":"ANTIOQUIA","MUNNOMBRE":"BARBOSA","PUESNOMBRE":"BIBLIOTECA ISOLDA ECHAVARRIA","Latitud":6.4358591766,"Longitud":-75.3293224716,"total_votos":1221,"ganador":"ABELARDO DE LA ESPRIELLA","votos_ganador":896,"margen":0.5225,"codmpio":"05079"},{"codigo_puesto":"050799801","coddane":"05079","DEPNOMBRE":"ANTIOQUIA","MUNNOMBRE":"BARBOSA","PUESNOMBRE":"CARCEL","Latitud":6.436011215,"Longitud":-75.3284163719,"total_votos":12,"ganador":"IVÁN CEPEDA CASTRO","votos_ganador":7,"margen":0.2727,"codmpio":"05079"},{"codigo_puesto":"050799901","coddane":"05079","DEPNOMBRE":"ANTIOQUIA","MUNNOMBRE":"BARBOSA","PUESNOMBRE":"I.E.R. EL HATILLO","Latitud":6.4135081941,"Longitud":-75.3921408216,"total_votos":3408,"ganador":"ABELARDO DE LA ESPRIELLA","votos_ganador":1959,"margen":0.2074,"codmpio":"05079"},{"codigo_puesto":"050860000","coddane":"05086","DEPNOMBRE":"ANTIOQUIA","MUNNOMBRE":"BELMIRA","PUESNOMBRE":"IE PRESBITERO RICARDO LUIS GUTIERREZ T.","Latitud":6.6029265647,"Longitud":-75.6649522676,"total_votos":1979,"ganador":"ABELARDO DE LA ESPRIELLA","votos_ganador":1598,"margen":0.6786,"codmpio":"05086"},