[{"codigo_puesto":"817940203","DEPNOMBRE":"ARAUCA","MUNNOMBRE":"TAME","PUESNOMBRE":"IE SAN LUIS","Latitud":6.4636166,"Longitud":-71.7360578,"total_votos":286,"ganador":"ABELARDO DE LA ESPRIELLA","votos_ganador":167,"codmpio":"81794"},{"codigo_puesto":"817949912","DEPNOMBRE":"ARAUCA","MUNNOMBRE":"TAME","PUESNOMBRE":"PUERTO SAN SALVADOR","Latitud":6.1965337,"Longitud":-71.7572021,"total_votos":106,"ganador":"ABELARDO DE LA ESPRIELLA","votos_ganador":74,"codmpio":"81794"},{"codigo_puesto":"817949970","DEPNOMBRE":"ARAUCA","MUNNOMBRE":"TAME","PUESNOMBRE":"EL TABLON","Latitud":6.2893637,"Longitud":-71.9329834,"total_votos":424,"ganador":"ABELARDO DE LA ESPRIELLA","votos_ganador":292,"codmpio":"81794"},{"codigo_puesto":"817949929","DEPNOMBRE":"ARAUCA","MUNNOMBRE":"TAME","PUESNOMBRE":"LAS MALVINAS","Latitud":6.5131791,"Longitud":-71.7475891,"total_votos":418,"ganador":"IVÁN CEPEDA CASTRO","votos_ganador":276,"codmpio":"81794"},{"codigo_puesto":"817949971","DEPNOMBRE":"ARAUCA","MUNNOMBRE":"TAME","PUESNOMBRE":"CENTRO POBLADO COROCITO","Latitud":6.5648171,"Longitud":-71.7024528,"total_votos":693,"ganador":"IVÁN CEPEDA CASTRO","votos_ganador":369,"codmpio":"81794"},{"codigo_puesto":"817949960","DEPNOMBRE":"ARAUCA","MUNNOMBRE":"TAME","PUESNOMBRE":"EL BOTALON","Latitud":6.5558157,"Longitud":-71.5532684,"total_votos":1167,"ganador":"IVÁN CEPEDA CASTRO","votos_ganador":981,"codmpio":"81794"},{"codigo_puesto":"817949950","DEPNOMBRE":"ARAUCA","MUNNOMBRE":"TAME","PUESNOMBRE":"CACHAMA","Latitud":6.285,"Longitud":-71.2691667,"total_votos":15,"ganador":"ABELARDO DE LA ESPRIELLA","votos_ganador":10,"codmpio":"81794"},{"codigo_puesto":"817949925","DEPNOMBRE":"ARAUCA","MUNNOMBRE":"TAME","PUESNOMBRE":"LA HOLANDA","Latitud":6.5022636,"Longitud":-71.523056,"total_votos":69,"ganador":"IVÁN CEPEDA CASTRO","votos_ganador":46,"codmpio":"81794"},{"codigo_puesto":"817949927","DEPNOMBRE":"ARAUCA","MUNNOMBRE":"TAME","PUESNOMBRE":"LA ARENOSA","Latitud":6.6833361,"Longitud":-71.2950778,"total_votos":155,"ganador":"IVÁN CEPEDA CASTRO","votos_ganador":132,"codmpio":"81794"},{"codigo_puesto":"817949972","DEPNOMBRE":"ARAUCA","MUNNOMBRE":"TAME","PUESNOMBRE":"SANTO DOMINGO","Latitud":6.4922279,"Longitud":-71.5569547,"total_votos":216,"ganador":"IVÁN CEPEDA CASTRO","votos_ganador":109,"codmpio":"81794"},{"codigo_puesto":"817949906","DEPNOMBRE":"ARAUCA","MUNNOMBRE":"TAME","PUESNOMBRE":"PUERTO GAITAN","Latitud":6.2605267,"Longitud":-71.6937733,"total_votos":71,"ganador":"ABELARDO DE LA ESPRIELLA","votos_ganador":52,"codmpio":"81794"},{"codigo_puesto":"817949902","DEPNOMBRE":"ARAUCA","MUNNOMBRE":"TAME","PUESNOMBRE":"BETOYES","Latitud":6.4916037,"Longitud":-71.5585041,"total_votos":855,"ganador":"IVÁN CEPEDA CASTRO","votos_ganador":639,"codmpio":"81794"},{"codigo_puesto":"817949946","DEPNOMBRE":"ARAUCA","MUNNOMBRE":"TAME","PUESNOMBRE":"PUERTO JORDAN","Latitud":6.6870278,"Longitud":-71.3458389,"total_votos":1661,"ganador":"IVÁN CEPEDA CASTRO","votos_ganador":1015,"codmpio":"81794"},{"codigo_puesto":"817940101","DEPNOMBRE":"ARAUCA","MUNNOMBRE":"TAME","PUESNOMBRE":"COL. INST. ORIENTAL FEMENINO","Latitud":6.4617493,"Longitud":-71.7310157,"total_votos":4361,"ganador":"ABELARDO DE LA ESPRIELLA","votos_ganador":3260,"codmpio":"81794"},{"codigo_puesto":"817940102","DEPNOMBRE":"ARAUCA","MUNNOMBRE":"TAME","PUESNOMBRE":"ESCUELA SAN ANTONIO","Latitud":6.4647076,"Longitud":-71.7214322,"total_votos":4082,"ganador":"ABELARDO DE LA ESPRIELLA","votos_ganador":2785,"codmpio":"81794"},{"codigo_puesto":"817940103","DEPNOMBRE":"ARAUCA","MUNNOMBRE":"TAME","PUESNOMBRE":"COLISEO CUBIERTO LOS LIBERTADORES","Latitud":6.4594413,"Longitud":-71.7300475,"total_votos":2288,"ganador":"ABELARDO DE LA ESPRIELLA","votos_ganador":1422,"codmpio":"81794"},{"codigo_puesto":"817940202","DEPNOMBRE":"ARAUCA","MUNNOMBRE":"TAME","PUESNOMBRE":"CIUDADELA UNIVERSITARIA","Latitud":6.4473945,"Longitud":-71.7561293,"total_votos":2620,"ganador":"ABELARDO DE LA ESPRIELLA","votos_ganador":1746,"codmpio":"81794"},{"codigo_puesto":"817940201","DEPNOMBRE":"ARAUCA","MUNNOMBRE":"TAME","PUESNOMBRE":"COLEGIO FROILAN FARIAS","Latitud":6.4556674,"Longitud":-71.7398483,"total_votos":3585,"ganador":"ABELARDO DE LA ESPRIELLA","votos_ganador":2423,"codmpio":"81794"},{"codigo_puesto":"815910000","DEPNOMBRE":"ARAUCA","MUNNOMBRE":"PUERTO RONDON","PUESNOMBRE":"PUESTO CABECERA MUNICIPAL","Latitud":6.2800064,"Longitud":-71.0981931,"total_votos":1877,"ganador":"ABELARDO DE LA ESPRIELLA","votos_ganador":1534,"codmpio":"81591"},{"codigo_puesto":"812200000","DEPNOMBRE":"ARAUCA","MUNNOMBRE":"CRAVO NORTE","PUESNOMBRE":"PUESTO CABECERA MUNICIPAL","Latitud":6.30087,"Longitud":-70.20581,"total_votos":1714,"ganador":"ABELARDO DE LA ESPRIELLA","votos_ganador":1291,"codmpio":"81220"},{"codigo_puesto":"810010204","DEPNOMBRE":"ARAUCA","MUNNOMBRE":"ARAUCA","PUESNOMBRE":"UNIDAD DE SALUD MENTAL ARAUCA","Latitud":7.0814025,"Longitud":-70.7466484,"total_votos":24,"ganador":"ABELARDO DE LA ESPRIELLA","votos_ganador":15,"codmpio":"81001"},{"codigo_puesto":"810019801","DEPNOMBRE":"ARAUCA","MUNNOMBRE":"ARAUCA","PUESNOMBRE":"CARCEL","Latitud":7.0822258,"Longitud":-70.7622311,"total_votos":77,"ganador":"IVÁN CEPEDA CASTRO","votos_ganador":39,"codmpio":"81001"},{"codigo_puesto":"810010206","DEPNOMBRE":"ARAUCA","MUNNOMBRE":"ARAUCA","PUESNOMBRE":"IE SEDE LUIS CARLOS GALAN","Latitud":7.0696242,"Longitud":-70.7623989,"total_votos":256,"ganador":"ABELARDO DE LA ESPRIELLA","votos_ganador":189,"codmpio":"81001"},{"codigo_puesto":"810010304","DEPNOMBRE":"ARAUCA","MUNNOMBRE":"ARAUCA","PUESNOMBRE":"COL TEC SANTA TERESITA","Latitud":7.0798581,"Longitud":-70.759714,"total_votos":2231,"ganador":"ABELARDO DE LA ESPRIELLA","votos_ganador":1659,"codmpio":"81001"},{"codigo_puesto":"810010302","DEPNOMBRE":"ARAUCA","MUNNOMBRE":"ARAUCA","PUESNOMBRE":"CONC.ESCOLAR LAS COROCORAS","Latitud":7.0851142,"Longitud":-70.7645273,"total_votos":2261,"ganador":"ABELARDO DE LA ESPRIELLA","votos_ganador":1676,"codmpio":"81001"},{"codigo_puesto":"810019943","DEPNOMBRE":"ARAUCA","MUNNOMBRE":"ARAUCA","PUESNOMBRE":"CLARINETERO","Latitud":7.0678921,"Longitud":-70.6663558,"total_votos":196,"ganador":"ABELARDO DE LA ESPRIELLA","votos_ganador":145,"codmpio":"81001"},{"codigo_puesto":"810019924","DEPNOMBRE":"ARAUCA","MUNNOMBRE":"ARAUCA","PUESNOMBRE":"SANTA BARBARA","Latitud":7.0309561,"Longitud":-70.7290772,"total_votos":608,"ganador":"ABELARDO DE LA ESPRIELLA","votos_ganador":473,"codmpio":"81001"},{"codigo_puesto":"810010205","DEPNOMBRE":"ARAUCA","MUNNOMBRE":"ARAUCA","PUESNOMBRE":"IE JUAN ISIDRO DABOIN","Latitud":7.0670953,"Longitud":-70.7224414,"total_votos":452,"ganador":"ABELARDO DE LA ESPRIELLA","votos_ganador":317,"codmpio":"81001"},{"codigo_puesto":"810019940","DEPNOMBRE":"ARAUCA","MUNNOMBRE":"ARAUCA","PUESNOMBRE":"TODOS LOS SANTOS","Latitud":6.9986997,"Longitud":-70.9360043,"total_votos":371,"ganador":"ABELARDO DE LA ESPRIELLA","votos_ganador":260,"codmpio":"81001"},{"codigo_puesto":"810019928","DEPNOMBRE":"ARAUCA","MUNNOMBRE":"ARAUCA","PUESNOMBRE":"CARACOL","Latitud":6.9385735,"Longitud":-70.2750644,"total_votos":184,"ganador":"ABELARDO DE LA ESPRIELLA","votos_ganador":157,"codmpio":"81001"},{"codigo_puesto":"810019941","DEPNOMBRE":"ARAUCA","MUNNOMBRE":"ARAUCA","PUESNOMBRE":"LAS NUBES","Latitud":6.9442111,"Longitud":-71.0404222,"total_votos":422,"ganador":"ABELARDO DE LA ESPRIELLA","votos_ganador":208,"codmpio":"81001"},{"codigo_puesto":"810019942","DEPNOMBRE":"ARAUCA","MUNNOMBRE":"ARAUCA","PUESNOMBRE":"FELICIANO","Latitud":6.7953271,"Longitud":-70.510866,"total_votos":162,"ganador":"ABELARDO DE LA ESPRIELLA","votos_ganador":147,"codmpio":"81001"},{"codigo_puesto":"810019919","DEPNOMBRE":"ARAUCA","MUNNOMBRE":"ARAUCA","PUESNOMBRE":"MAPORILLAL","Latitud":6.730452,"Longitud":-70.7334449,"total_votos":71,"ganador":"ABELARDO DE LA ESPRIELLA","votos_ganador":61,"codmpio":"81001"},{"codigo_puesto":"810019903","DEPNOMBRE":"ARAUCA","MUNNOMBRE":"ARAUCA","PUESNOMBRE":"CAÑAS BRAVAS","Latitud":6.7881854,"Longitud":-71.0250558,"total_votos":225,"ganador":"IVÁN CEPEDA CASTRO","votos_ganador":111,"codmpio":"81001"},{"codigo_puesto":"810010104","DEPNOMBRE":"ARAUCA","MUNNOMBRE":"ARAUCA","PUESNOMBRE":"ESCUELA JOSE MARIA CORDOBA","Latitud":7.0884104,"Longitud":-70.7535521,"total_votos":613,"ganador":"ABELARDO DE LA ESPRIELLA","votos_ganador":422,"codmpio":"81001"},{"codigo_puesto":"810010103","DEPNOMBRE":"ARAUCA","MUNNOMBRE":"ARAUCA","PUESNOMBRE":"ESCUELA LOS LIBERTADORES","Latitud":7.0951275,"Longitud":-70.7589414,"total_votos":554,"ganador":"ABELARDO DE LA ESPRIELLA","votos_ganador":348,"codmpio":"81001"},{"codigo_puesto":"810010202","DEPNOMBRE":"ARAUCA","MUNNOMBRE":"ARAUCA","PUESNOMBRE":"COLEGIO TEC. CRISTO REY","Latitud":7.0832031,"Longitud":-70.7530367,"total_votos":5614,"ganador":"ABELARDO DE LA ESPRIELLA","votos_ganador":4102,"codmpio":"81001"},{"codigo_puesto":"810010101","DEPNOMBRE":"ARAUCA","MUNNOMBRE":"ARAUCA","PUESNOMBRE":"COLEGIO SIMON BOLIVAR","Latitud":7.0939511,"Longitud":-70.7575107,"total_votos":4182,"ganador":"ABELARDO DE LA ESPRIELLA","votos_ganador":3145,"codmpio":"81001"},{"codigo_puesto":"810010102","DEPNOMBRE":"ARAUCA","MUNNOMBRE":"ARAUCA","PUESNOMBRE":"CONCENTRACION CAMILO TORRES","Latitud":7.0889084,"Longitud":-70.7473862,"total_votos":3317,"ganador":"ABELARDO DE LA ESPRIELLA","votos_ganador":2516,"codmpio":"81001"},{"codigo_puesto":"810010303","DEPNOMBRE":"ARAUCA","MUNNOMBRE":"ARAUCA","PUESNOMBRE":"CONC.ESCOLAR DIVINO NIÑO","Latitud":7.078215,"Longitud":-70.7715011,"total_votos":5312,"ganador":"ABELARDO DE LA ESPRIELLA","votos_ganador":3559,"codmpio":"81001"},{"codigo_puesto":"810010301","DEPNOMBRE":"ARAUCA","MUNNOMBRE":"ARAUCA","PUESNOMBRE":"COLEGIO SANTANDER PRIMARIA","Latitud":7.0850929,"Longitud":-70.7585406,"total_votos":3457,"ganador":"ABELARDO DE LA ESPRIELLA","votos_ganador":2513,"codmpio":"81001"},{"codigo_puesto":"810010201","DEPNOMBRE":"ARAUCA","MUNNOMBRE":"ARAUCA","PUESNOMBRE":"NORMAL MARIA INMACULADA","Latitud":7.0850503,"Longitud":-70.7572371,"total_votos":3529,"ganador":"ABELARDO DE LA ESPRIELLA","votos_ganador":2637,"codmpio":"81001"},{"codigo_puesto":"810010203","DEPNOMBRE":"ARAUCA","MUNNOMBRE":"ARAUCA","PUESNOMBRE":"ESCUELA FLOR DE MI LLANO","Latitud":7.0669894,"Longitud":-70.7469442,"total_votos":4358,"ganador":"ABELARDO DE LA ESPRIELLA","votos_ganador":3195,"codmpio":"81001"},{"codigo_puesto":"817360104","DEPNOMBRE":"ARAUCA","MUNNOMBRE":"SARAVENA","PUESNOMBRE":"SEDE EDUCATIVA LAS VILLAS","Latitud":6.9534066,"Longitud":-71.8717145,"total_votos":1251,"ganador":"IVÁN CEPEDA CASTRO","votos_ganador":646,"codmpio":"81736"},{"codigo_puesto":"817360103","DEPNOMBRE":"ARAUCA","MUNNOMBRE":"SARAVENA","PUESNOMBRE":"SEDE EDUCATIVA SEIS DE OCTUBRE","Latitud":6.949407,"Longitud":-71.872797,"total_votos":3474,"ganador":"IVÁN CEPEDA CASTRO","votos_ganador":1833,"codmpio":"81736"},{"codigo_puesto":"817369960","DEPNOMBRE":"ARAUCA","MUNNOMBRE":"SARAVENA","PUESNOMBRE":"PUERTO NARIÑO","Latitud":7.0083972,"Longitud":-71.7863895,"total_votos":1851,"ganador":"IVÁN CEPEDA CASTRO","votos_ganador":1049,"codmpio":"81736"},{"codigo_puesto":"817369962","DEPNOMBRE":"ARAUCA","MUNNOMBRE":"SARAVENA","PUESNOMBRE":"VEREDA VIAS","Latitud":6.893028,"Longitud":-71.790042,"total_votos":571,"ganador":"IVÁN CEPEDA CASTRO","votos_ganador":359,"codmpio":"81736"},{"codigo_puesto":"817369961","DEPNOMBRE":"ARAUCA","MUNNOMBRE":"SARAVENA","PUESNOMBRE":"RESGUARDO INDIGENAS DE PLAYAS DE BOJABA","Latitud":6.9730111,"Longitud":-71.9593548,"total_votos":198,"ganador":"IVÁN CEPEDA CASTRO","votos_ganador":194,"codmpio":"81736"},{"codigo_puesto":"817360101","DEPNOMBRE":"ARAUCA","MUNNOMBRE":"SARAVENA","PUESNOMBRE":"CENTRO CULT Y DEPORTIVO SIMON","Latitud":6.9521001,"Longitud":-71.872,"total_votos":3808,"ganador":"ABELARDO DE LA ESPRIELLA","votos_ganador":2099,"codmpio":"81736"},{"codigo_puesto":"817360102","DEPNOMBRE":"ARAUCA","MUNNOMBRE":"SARAVENA","PUESNOMBRE":"IE LA FRONTERA","Latitud":6.9486804,"Longitud":-71.8861478,"total_votos":5369,"ganador":"IVÁN CEPEDA CASTRO","votos_ganador":2784,"codmpio":"81736"},{"codigo_puesto":"817360201","DEPNOMBRE":"ARAUCA","MUNNOMBRE":"SARAVENA","PUESNOMBRE":"SEDE EDUCATIVA GENERAL SANTANDER","Latitud":6.9626609,"Longitud":-71.872381,"total_votos":2350,"ganador":"ABELARDO DE LA ESPRIELLA","votos_ganador":1177,"codmpio":"81736"},{"codigo_puesto":"817360202","DEPNOMBRE":"ARAUCA","MUNNOMBRE":"SARAVENA","PUESNOMBRE":"IE TEC.IND.RAFAEL POMBO BTO","Latitud":6.9646428,"Longitud":-71.8777363,"total_votos":4304,"ganador":"IVÁN CEPEDA CASTRO","votos_ganador":2182,"codmpio":"81736"},{"codigo_puesto":"817360203","DEPNOMBRE":"ARAUCA","MUNNOMBRE":"SARAVENA","PUESNOMBRE":"SEDE EDUCATIVA MANUELA BELTRAN","Latitud":6.9643816,"Longitud":-71.8675179,"total_votos":280,"ganador":"IVÁN CEPEDA CASTRO","votos_ganador":147,"codmpio":"81736"},{"codigo_puesto":"810650101","DEPNOMBRE":"ARAUCA","MUNNOMBRE":"ARAUQUITA","PUESNOMBRE":"IE LICEO DEL LLANO","Latitud":7.0300255,"Longitud":-71.4308553,"total_votos":2561,"ganador":"IVÁN CEPEDA CASTRO","votos_ganador":1270,"codmpio":"81065"},{"codigo_puesto":"810650102","DEPNOMBRE":"ARAUCA","MUNNOMBRE":"ARAUQUITA","PUESNOMBRE":"IE LICEO DEL LLANO SEDE SIMON BOLIVAR","Latitud":7.0296857,"Longitud":-71.4319655,"total_votos":2049,"ganador":"IVÁN CEPEDA CASTRO","votos_ganador":1136,"codmpio":"81065"},{"codigo_puesto":"810659926","DEPNOMBRE":"ARAUCA","MUNNOMBRE":"ARAUQUITA","PUESNOMBRE":"BRISAS DEL CARANAL","Latitud":6.8212067,"Longitud":-71.3229571,"total_votos":234,"ganador":"IVÁN CEPEDA CASTRO","votos_ganador":181,"codmpio":"81065"},{"codigo_puesto":"810659927","DEPNOMBRE":"ARAUCA","MUNNOMBRE":"ARAUQUITA","PUESNOMBRE":"RESGUARDO INDIGENA EL VIGIA","Latitud":7.0249424,"Longitud":-71.5521153,"total_votos":192,"ganador":"IVÁN CEPEDA CASTRO","votos_ganador":190,"codmpio":"81065"},{"codigo_puesto":"810659930","DEPNOMBRE":"ARAUCA","MUNNOMBRE":"ARAUQUITA","PUESNOMBRE":"RESGUARDO INDIGENA IGUANITOS","Latitud":6.7093352,"Longitud":-71.4207147,"total_votos":31,"ganador":"IVÁN CEPEDA CASTRO","votos_ganador":24,"codmpio":"81065"},{"codigo_puesto":"810659931","DEPNOMBRE":"ARAUCA","MUNNOMBRE":"ARAUQUITA","PUESNOMBRE":"VEREDA FILIPINAS","Latitud":6.6680706,"Longitud":-71.2077882,"total_votos":252,"ganador":"IVÁN CEPEDA CASTRO","votos_ganador":227,"codmpio":"81065"},{"codigo_puesto":"810659928","DEPNOMBRE":"ARAUCA","MUNNOMBRE":"ARAUQUITA","PUESNOMBRE":"RESGUARDO INDIGENA SAN JOSE DE LIPA","Latitud":7.0279747,"Longitud":-71.4324175,"total_votos":48,"ganador":"IVÁN CEPEDA CASTRO","votos_ganador":44,"codmpio":"81065"},{"codigo_puesto":"810659933","DEPNOMBRE":"ARAUCA","MUNNOMBRE":"ARAUQUITA","PUESNOMBRE":"VEREDA EL TRONCAL","Latitud":7.0205667,"Longitud":-71.385025,"total_votos":423,"ganador":"IVÁN CEPEDA CASTRO","votos_ganador":250,"codmpio":"81065"},{"codigo_puesto":"810659932","DEPNOMBRE":"ARAUCA","MUNNOMBRE":"ARAUQUITA","PUESNOMBRE":"VEREDA SAN LORENZO","Latitud":7.016325,"Longitud":-71.5124028,"total_votos":141,"ganador":"IVÁN CEPEDA CASTRO","votos_ganador":107,"codmpio":"81065"},{"codigo_puesto":"810659905","DEPNOMBRE":"ARAUCA","MUNNOMBRE":"ARAUQUITA","PUESNOMBRE":"LA ESMERALDA","Latitud":6.9598829,"Longitud":-71.6268584,"total_votos":2085,"ganador":"IVÁN CEPEDA CASTRO","votos_ganador":1227,"codmpio":"81065"},{"codigo_puesto":"810659916","DEPNOMBRE":"ARAUCA","MUNNOMBRE":"ARAUQUITA","PUESNOMBRE":"LA PESQUERA","Latitud":6.9429723,"Longitud":-71.2159785,"total_votos":1056,"ganador":"IVÁN CEPEDA CASTRO","votos_ganador":510,"codmpio":"81065"},{"codigo_puesto":"810659906","DEPNOMBRE":"ARAUCA","MUNNOMBRE":"ARAUQUITA","PUESNOMBRE":"LA PAZ","Latitud":6.841949,"Longitud":-71.5985885,"total_votos":683,"ganador":"IVÁN CEPEDA CASTRO","votos_ganador":558,"codmpio":"81065"},{"codigo_puesto":"810659907","DEPNOMBRE":"ARAUCA","MUNNOMBRE":"ARAUQUITA","PUESNOMBRE":"REINERA","Latitud":6.5739,"Longitud":-71.0952,"total_votos":637,"ganador":"ABELARDO DE LA ESPRIELLA","votos_ganador":376,"codmpio":"81065"},{"codigo_puesto":"810659945","DEPNOMBRE":"ARAUCA","MUNNOMBRE":"ARAUQUITA","PUESNOMBRE":"PANAMA DE ARAUCA","Latitud":6.8230874,"Longitud":-71.2249957,"total_votos":2387,"ganador":"IVÁN CEPEDA CASTRO","votos_ganador":1385,"codmpio":"81065"},{"codigo_puesto":"810650201","DEPNOMBRE":"ARAUCA","MUNNOMBRE":"ARAUQUITA","PUESNOMBRE":"IE GABRIEL GARCIA MARQUEZ SEC PRIMARIA","Latitud":7.0267287,"Longitud":-71.4278061,"total_votos":1960,"ganador":"IVÁN CEPEDA CASTRO","votos_ganador":1129,"codmpio":"81065"},{"codigo_puesto":"810650202","DEPNOMBRE":"ARAUCA","MUNNOMBRE":"ARAUQUITA","PUESNOMBRE":"IE GABRIEL GARCIA MARQUEZ SEC SECUNDARIA","Latitud":7.0286727,"Longitud":-71.4319267,"total_votos":1537,"ganador":"IVÁN CEPEDA CASTRO","votos_ganador":840,"codmpio":"81065"},{"codigo_puesto":"810659902","DEPNOMBRE":"ARAUCA","MUNNOMBRE":"ARAUQUITA","PUESNOMBRE":"AGUACHICA","Latitud":6.8840831,"Longitud":-71.5209871,"total_votos":1075,"ganador":"IVÁN CEPEDA CASTRO","votos_ganador":880,"codmpio":"81065"},{"codigo_puesto":"813000002","DEPNOMBRE":"ARAUCA","MUNNOMBRE":"FORTUL","PUESNOMBRE":"CONCENTRACION ELVIRA WALTEROS","Latitud":6.7874223,"Longitud":-71.7769271,"total_votos":2754,"ganador":"IVÁN CEPEDA CASTRO","votos_ganador":1913,"codmpio":"81300"},{"codigo_puesto":"813000001","DEPNOMBRE":"ARAUCA","MUNNOMBRE":"FORTUL","PUESNOMBRE":"POLIDEPORTIVO MUNICIPAL","Latitud":6.7901284,"Longitud":-71.7737514,"total_votos":3324,"ganador":"IVÁN CEPEDA CASTRO","votos_ganador":2165,"codmpio":"81300"},{"codigo_puesto":"813009910","DEPNOMBRE":"ARAUCA","MUNNOMBRE":"FORTUL","PUESNOMBRE":"NUEVO CARANAL","Latitud":6.7102998,"Longitud":-71.6885376,"total_votos":1130,"ganador":"IVÁN CEPEDA CASTRO","votos_ganador":834,"codmpio":"81300"},{"codigo_puesto":"813009908","DEPNOMBRE":"ARAUCA","MUNNOMBRE":"FORTUL","PUESNOMBRE":"CAÑO FLOREZ","Latitud":6.7057778,"Longitud":-71.6022875,"total_votos":612,"ganador":"IVÁN CEPEDA CASTRO","votos_ganador":518,"codmpio":"81300"},{"codigo_puesto":"813009935","DEPNOMBRE":"ARAUCA","MUNNOMBRE":"FORTUL","PUESNOMBRE":"MATECAÑA","Latitud":6.7234963,"Longitud":-71.5625167,"total_votos":226,"ganador":"IVÁN CEPEDA CASTRO","votos_ganador":194,"codmpio":"81300"},{"codigo_puesto":"540010706","DEPNOMBRE":"NORTE DE SAN","MUNNOMBRE":"CUCUTA","PUESNOMBRE":"COL BASICO CAMILO DAZA","Latitud":7.9390536,"Longitud":-72.5216813,"total_votos":3305,"ganador":"ABELARDO DE LA ESPRIELLA","votos_ganador":2552,"codmpio":"54001"},{"codigo_puesto":"540010703","DEPNOMBRE":"NORTE DE SAN","MUNNOMBRE":"CUCUTA","PUESNOMBRE":"COL INTEGRADO JUAN ATALAYA","Latitud":7.910097,"Longitud":-72.5306491,"total_votos":8160,"ganador":"ABELARDO DE LA ESPRIELLA","votos_ganador":6318,"codmpio":"54001"},{"codigo_puesto":"540010907","DEPNOMBRE":"NORTE DE SAN","MUNNOMBRE":"CUCUTA","PUESNOMBRE":"ESC. URB. VARONES No 28 ATANASIO GIR.","Latitud":7.8728242,"Longitud":-72.5247283,"total_votos":1166,"ganador":"ABELARDO DE LA ESPRIELLA","votos_ganador":896,"codmpio":"54001"},{"codigo_puesto":"540010906","DEPNOMBRE":"NORTE DE SAN","MUNNOMBRE":"CUCUTA","PUESNOMBRE":"COL.BASICO LOS ALPES","Latitud":7.893944,"Longitud":-72.514421,"total_votos":1605,"ganador":"ABELARDO DE LA ESPRIELLA","votos_ganador":1247,"codmpio":"54001"},{"codigo_puesto":"540010901","DEPNOMBRE":"NORTE DE SAN","MUNNOMBRE":"CUCUTA","PUESNOMBRE":"COL NTRA SRA DE BELEN 23 VARON","Latitud":7.8747154,"Longitud":-72.5305185,"total_votos":9141,"ganador":"ABELARDO DE LA ESPRIELLA","votos_ganador":7187,"codmpio":"54001"},{"codigo_puesto":"540010505","DEPNOMBRE":"NORTE DE SAN","MUNNOMBRE":"CUCUTA","PUESNOMBRE":"COL ORIENTAL No. 26","Latitud":7.91662,"Longitud":-72.4986228,"total_votos":7970,"ganador":"ABELARDO DE LA ESPRIELLA","votos_ganador":6186,"codmpio":"54001"},{"codigo_puesto":"540010507","DEPNOMBRE":"NORTE DE SAN","MUNNOMBRE":"CUCUTA","PUESNOMBRE":"COL.BASICO GUAIMARAL NRO 25","Latitud":7.910581,"Longitud":-72.491044,"total_votos":3579,"ganador":"ABELARDO DE LA ESPRIELLA","votos_ganador":2667,"codmpio":"54001"},{"codigo_puesto":"540010709","DEPNOMBRE":"NORTE DE SAN","MUNNOMBRE":"CUCUTA","PUESNOMBRE":"COL. SANTOS APOSTOLES SD EL ROSAL","Latitud":7.9197322,"Longitud":-72.5230905,"total_votos":1944,"ganador":"ABELARDO DE LA ESPRIELLA","votos_ganador":1438,"codmpio":"54001"},{"codigo_puesto":"540010705","DEPNOMBRE":"NORTE DE SAN","MUNNOMBRE":"CUCUTA","PUESNOMBRE":"COL BUENOS AIRES","Latitud":7.9312156,"Longitud":-72.5198904,"total_votos":5023,"ganador":"ABELARDO DE LA ESPRIELLA","votos_ganador":3943,"codmpio":"54001"},{"codigo_puesto":"540010701","DEPNOMBRE":"NORTE DE SAN","MUNNOMBRE":"CUCUTA","PUESNOMBRE":"ESC. URBANA JOSE CELESTINO MUTIS No 31","Latitud":7.90748,"Longitud":-72.512341,"total_votos":6303,"ganador":"ABELARDO DE LA ESPRIELLA","votos_ganador":5017,"codmpio":"54001"},{"codigo_puesto":"540010303","DEPNOMBRE":"NORTE DE SAN","MUNNOMBRE":"CUCUTA","PUESNOMBRE":"CLUB DE LEONES SEDE I.E.BOCONO","Latitud":7.895469,"Longitud":-72.462165,"total_votos":3588,"ganador":"ABELARDO DE LA ESPRIELLA","votos_ganador":2897,"codmpio":"54001"},{"codigo_puesto":"540010304","DEPNOMBRE":"NORTE DE SAN","MUNNOMBRE":"CUCUTA","PUESNOMBRE":"IE MISAEL PASTRANA BORRERO","Latitud":7.884377,"Longitud":-72.485092,"total_votos":5541,"ganador":"ABELARDO DE LA ESPRIELLA","votos_ganador":4404,"codmpio":"54001"},{"codigo_puesto":"540010306","DEPNOMBRE":"NORTE DE SAN","MUNNOMBRE":"CUCUTA","PUESNOMBRE":"IE PABLO CORREA LEON","Latitud":7.8899062,"Longitud":-72.4756236,"total_votos":1074,"ganador":"ABELARDO DE LA ESPRIELLA","votos_ganador":816,"codmpio":"54001"},{"codigo_puesto":"540010302","DEPNOMBRE":"NORTE DE SAN","MUNNOMBRE":"CUCUTA","PUESNOMBRE":"COL.FRANCISCO JOSE CALDAS","Latitud":7.884786,"Longitud":-72.476144,"total_votos":9305,"ganador":"ABELARDO DE LA ESPRIELLA","votos_ganador":7318,"codmpio":"54001"},{"codigo_puesto":"540010501","DEPNOMBRE":"NORTE DE SAN","MUNNOMBRE":"CUCUTA","PUESNOMBRE":"COL. GREMIOS UNIDOS SD SIMON BOLIVAR","Latitud":7.900768,"Longitud":-72.5042346,"total_votos":7015,"ganador":"ABELARDO DE LA ESPRIELLA","votos_ganador":5544,"codmpio":"54001"},{"codigo_puesto":"540010510","DEPNOMBRE":"NORTE DE SAN","MUNNOMBRE":"CUCUTA","PUESNOMBRE":"COL. MPAL MARIA CONCEPCION LOPERENA","Latitud":7.9007889,"Longitud":-72.4905792,"total_votos":3713,"ganador":"ABELARDO DE LA ESPRIELLA","votos_ganador":2901,"codmpio":"54001"},{"codigo_puesto":"540010902","DEPNOMBRE":"NORTE DE SAN","MUNNOMBRE":"CUCUTA","PUESNOMBRE":"COL JULIO PEREZ FERRERO","Latitud":7.8856069,"Longitud":-72.5180328,"total_votos":7659,"ganador":"ABELARDO DE LA ESPRIELLA","votos_ganador":6001,"codmpio":"54001"},{"codigo_puesto":"540010904","DEPNOMBRE":"NORTE DE SAN","MUNNOMBRE":"CUCUTA","PUESNOMBRE":"COL NTRA SRA DE BELEN LA DIVINA PASTORA","Latitud":7.876707,"Longitud":-72.536751,"total_votos":4425,"ganador":"ABELARDO DE LA ESPRIELLA","votos_ganador":3351,"codmpio":"54001"},{"codigo_puesto":"540010203","DEPNOMBRE":"NORTE DE SAN","MUNNOMBRE":"CUCUTA","PUESNOMBRE":"UNIVERSIDAD FRANCISCO DE PAULA SANTANDER","Latitud":7.895702,"Longitud":-72.491557,"total_votos":9435,"ganador":"ABELARDO DE LA ESPRIELLA","votos_ganador":7263,"codmpio":"54001"},{"codigo_puesto":"540010509","DEPNOMBRE":"NORTE DE SAN","MUNNOMBRE":"CUCUTA","PUESNOMBRE":"INSTITUTO TECNICO MERCEDES ABREGO","Latitud":7.909314,"Longitud":-72.4864417,"total_votos":1951,"ganador":"ABELARDO DE LA ESPRIELLA","votos_ganador":1446,"codmpio":"54001"},{"codigo_puesto":"540010503","DEPNOMBRE":"NORTE DE SAN","MUNNOMBRE":"CUCUTA","PUESNOMBRE":"INEM","Latitud":7.9025319,"Longitud":-72.4895825,"total_votos":4312,"ganador":"ABELARDO DE LA ESPRIELLA","votos_ganador":3351,"codmpio":"54001"},{"codigo_puesto":"540010201","DEPNOMBRE":"NORTE DE SAN","MUNNOMBRE":"CUCUTA","PUESNOMBRE":"SALESIANO","Latitud":7.892797,"Longitud":-72.49596,"total_votos":3902,"ganador":"ABELARDO DE LA ESPRIELLA","votos_ganador":3064,"codmpio":"54001"},{"codigo_puesto":"540010205","DEPNOMBRE":"NORTE DE SAN","MUNNOMBRE":"CUCUTA","PUESNOMBRE":"GIMNASIO DOMINGO SAVIO","Latitud":7.889674,"Longitud":-72.4903029,"total_votos":7036,"ganador":"ABELARDO DE LA ESPRIELLA","votos_ganador":5589,"codmpio":"54001"},{"codigo_puesto":"540010305","DEPNOMBRE":"NORTE DE SAN","MUNNOMBRE":"CUCUTA","PUESNOMBRE":"FCO JOSE DE CALDAS SEDE SAN PEDRO CLAVER","Latitud":7.880186,"Longitud":-72.480176,"total_votos":3904,"ganador":"ABELARDO DE LA ESPRIELLA","votos_ganador":3155,"codmpio":"54001"},{"codigo_puesto":"540010301","DEPNOMBRE":"NORTE DE SAN","MUNNOMBRE":"CUCUTA","PUESNOMBRE":"COL PABLO CORREA SEDE CLUB DE","Latitud":7.88675,"Longitud":-72.471528,"total_votos":7924,"ganador":"ABELARDO DE LA ESPRIELLA","votos_ganador":6270,"codmpio":"54001"},{"codigo_puesto":"540010506","DEPNOMBRE":"NORTE DE SAN","MUNNOMBRE":"CUCUTA","PUESNOMBRE":"INEM sede MIGUEL MULLER","Latitud":7.913552,"Longitud":-72.49101,"total_votos":4093,"ganador":"ABELARDO DE LA ESPRIELLA","votos_ganador":3111,"codmpio":"54001"},{"codigo_puesto":"540010504","DEPNOMBRE":"NORTE DE SAN","MUNNOMBRE":"CUCUTA","PUESNOMBRE":"COL ANDRES BELLO","Latitud":7.9074279,"Longitud":-72.5056651,"total_votos":6425,"ganador":"ABELARDO DE LA ESPRIELLA","votos_ganador":5110,"codmpio":"54001"},{"codigo_puesto":"540010903","DEPNOMBRE":"NORTE DE SAN","MUNNOMBRE":"CUCUTA","PUESNOMBRE":"IE MANUEL FERNANDEZ DE NOVOA","Latitud":7.8926104,"Longitud":-72.5137053,"total_votos":5998,"ganador":"ABELARDO DE LA ESPRIELLA","votos_ganador":4743,"codmpio":"54001"},{"codigo_puesto":"540010905","DEPNOMBRE":"NORTE DE SAN","MUNNOMBRE":"CUCUTA","PUESNOMBRE":"COL GARCIA HERREROS sede ESC 28 FEBRERO","Latitud":7.889056,"Longitud":-72.512778,"total_votos":4775,"ganador":"ABELARDO DE LA ESPRIELLA","votos_ganador":3776,"codmpio":"54001"},{"codigo_puesto":"540010204","DEPNOMBRE":"NORTE DE SAN","MUNNOMBRE":"CUCUTA","PUESNOMBRE":"COLEGIO LA SALLE","Latitud":7.8910893,"Longitud":-72.4983831,"total_votos":7935,"ganador":"ABELARDO DE LA ESPRIELLA","votos_ganador":6341,"codmpio":"54001"},{"codigo_puesto":"540010808","DEPNOMBRE":"NORTE DE SAN","MUNNOMBRE":"CUCUTA","PUESNOMBRE":"I.E. PEDRO CUADRO HERRERA","Latitud":7.8894273,"Longitud":-72.5517605,"total_votos":892,"ganador":"ABELARDO DE LA ESPRIELLA","votos_ganador":668,"codmpio":"54001"},{"codigo_puesto":"540010802","DEPNOMBRE":"NORTE DE SAN","MUNNOMBRE":"CUCUTA","PUESNOMBRE":"I.E. PADRE MANUEL BRICEÑO JAUREGUI","Latitud":7.9048547,"Longitud":-72.5237709,"total_votos":10128,"ganador":"ABELARDO DE LA ESPRIELLA","votos_ganador":8102,"codmpio":"54001"},{"codigo_puesto":"540010809","DEPNOMBRE":"NORTE DE SAN","MUNNOMBRE":"CUCUTA","PUESNOMBRE":"IE RAFAEL URIBE URIBE SD CARLOS RAMIREZ","Latitud":7.895769,"Longitud":-72.524894,"total_votos":1761,"ganador":"ABELARDO DE LA ESPRIELLA","votos_ganador":1414,"codmpio":"54001"},{"codigo_puesto":"540010408","DEPNOMBRE":"NORTE DE SAN","MUNNOMBRE":"CUCUTA","PUESNOMBRE":"CENTRO INT. CIUDADANA PRADOS DEL ESTE","Latitud":7.9144731,"Longitud":-72.4743346,"total_votos":6273,"ganador":"ABELARDO DE LA ESPRIELLA","votos_ganador":4981,"codmpio":"54001"},{"codigo_puesto":"540010402","DEPNOMBRE":"NORTE DE SAN","MUNNOMBRE":"CUCUTA","PUESNOMBRE":"IE PABLO CORREA SD MARIA AUXILIADORA","Latitud":7.8899332,"Longitud":-72.4780149,"total_votos":5972,"ganador":"ABELARDO DE LA ESPRIELLA","votos_ganador":4719,"codmpio":"54001"},{"codigo_puesto":"540010409","DEPNOMBRE":"NORTE DE SAN","MUNNOMBRE":"CUCUTA","PUESNOMBRE":"IE SAN JUAN BOSCO - CLUB DE LEONES","Latitud":7.9014636,"Longitud":-72.4750677,"total_votos":978,"ganador":"ABELARDO DE LA ESPRIELLA","votos_ganador":779,"codmpio":"54001"},{"codigo_puesto":"540010403","DEPNOMBRE":"NORTE DE SAN","MUNNOMBRE":"CUCUTA","PUESNOMBRE":"COLEGIO SIMON BOLIVAR","Latitud":7.9041049,"Longitud":-72.4696361,"total_votos":7015,"ganador":"ABELARDO DE LA ESPRIELLA","votos_ganador":5461,"codmpio":"54001"},{"codigo_puesto":"540010401","DEPNOMBRE":"NORTE DE SAN","MUNNOMBRE":"CUCUTA","PUESNOMBRE":"ESC.MARCO FIDEL SUAREZ","Latitud":7.894422,"Longitud":-72.483371,"total_votos":3431,"ganador":"ABELARDO DE LA ESPRIELLA","votos_ganador":2701,"codmpio":"54001"},{"codigo_puesto":"540010202","DEPNOMBRE":"NORTE DE SAN","MUNNOMBRE":"CUCUTA","PUESNOMBRE":"MERCEDES ABREGO SEDE JARDIN NACIONAL","Latitud":7.89495,"Longitud":-72.487283,"total_votos":5598,"ganador":"ABELARDO DE LA ESPRIELLA","votos_ganador":4524,"codmpio":"54001"},{"codigo_puesto":"540010508","DEPNOMBRE":"NORTE DE SAN","MUNNOMBRE":"CUCUTA","PUESNOMBRE":"CENTRO INTEGRACION CIUDADANA EL BOSQUE","Latitud":7.91278,"Longitud":-72.50103,"total_votos":2305,"ganador":"ABELARDO DE LA ESPRIELLA","votos_ganador":1768,"codmpio":"54001"},{"codigo_puesto":"540010502","DEPNOMBRE":"NORTE DE SAN","MUNNOMBRE":"CUCUTA","PUESNOMBRE":"GUAIMARAL S.HERMOGENES MAZA","Latitud":7.9098963,"Longitud":-72.4952512,"total_votos":8312,"ganador":"ABELARDO DE LA ESPRIELLA","votos_ganador":6399,"codmpio":"54001"},{"codigo_puesto":"540010801","DEPNOMBRE":"NORTE DE SAN","MUNNOMBRE":"CUCUTA","PUESNOMBRE":"ESC.No38 TEODORO GUTIERREZ C.","Latitud":7.9088436,"Longitud":-72.5394401,"total_votos":6593,"ganador":"ABELARDO DE LA ESPRIELLA","votos_ganador":5162,"codmpio":"54001"},{"codigo_puesto":"540010805","DEPNOMBRE":"NORTE DE SAN","MUNNOMBRE":"CUCUTA","PUESNOMBRE":"COL HERMANO RODULFO ELOY","Latitud":7.8966924,"Longitud":-72.5348137,"total_votos":6335,"ganador":"ABELARDO DE LA ESPRIELLA","votos_ganador":4788,"codmpio":"54001"},{"codigo_puesto":"540010702","DEPNOMBRE":"NORTE DE SAN","MUNNOMBRE":"CUCUTA","PUESNOMBRE":"COL SAN BARTOLOME","Latitud":7.9087481,"Longitud":-72.5211115,"total_votos":6331,"ganador":"ABELARDO DE LA ESPRIELLA","votos_ganador":5080,"codmpio":"54001"},{"codigo_puesto":"540010708","DEPNOMBRE":"NORTE DE SAN","MUNNOMBRE":"CUCUTA","PUESNOMBRE":"ESC. COMUNEROS # 33 - COL. SAN BARTOLOME","Latitud":7.9115686,"Longitud":-72.5206534,"total_votos":3793,"ganador":"ABELARDO DE LA ESPRIELLA","votos_ganador":2832,"codmpio":"54001"},{"codigo_puesto":"540010710","DEPNOMBRE":"NORTE DE SAN","MUNNOMBRE":"CUCUTA","PUESNOMBRE":"IE MARIANO OSPINA R. SD MONS. LUIS PEREZ","Latitud":7.9193991,"Longitud":-72.5197922,"total_votos":2850,"ganador":"ABELARDO DE LA ESPRIELLA","votos_ganador":2244,"codmpio":"54001"},{"codigo_puesto":"540010103","DEPNOMBRE":"NORTE DE SAN","MUNNOMBRE":"CUCUTA","PUESNOMBRE":"COL SAGRADO CORAZON DE JESUS","Latitud":7.880685,"Longitud":-72.5075867,"total_votos":9808,"ganador":"ABELARDO DE LA ESPRIELLA","votos_ganador":7666,"codmpio":"54001"},{"codigo_puesto":"540019801","DEPNOMBRE":"NORTE DE SAN","MUNNOMBRE":"CUCUTA","PUESNOMBRE":"CARCEL","Latitud":7.9411213,"Longitud":-72.4895088,"total_votos":79,"ganador":"ABELARDO DE LA ESPRIELLA","votos_ganador":43,"codmpio":"54001"},{"codigo_puesto":"540019802","DEPNOMBRE":"NORTE DE SAN","MUNNOMBRE":"CUCUTA","PUESNOMBRE":"CARCEL DE MUJERES","Latitud":7.939222,"Longitud":-72.4906,"total_votos":50,"ganador":"ABELARDO DE LA ESPRIELLA","votos_ganador":31,"codmpio":"54001"},{"codigo_puesto":"540019945","DEPNOMBRE":"NORTE DE SAN","MUNNOMBRE":"CUCUTA","PUESNOMBRE":"EL CARMEN DE TONCHALA","Latitud":7.8468599,"Longitud":-72.56926,"total_votos":329,"ganador":"ABELARDO DE LA ESPRIELLA","votos_ganador":262,"codmpio":"54001"},{"codigo_puesto":"540019937","DEPNOMBRE":"NORTE DE SAN","MUNNOMBRE":"CUCUTA","PUESNOMBRE":"SAN FAUSTINO","Latitud":8.060392,"Longitud":-72.405995,"total_votos":858,"ganador":"ABELARDO DE LA ESPRIELLA","votos_ganador":782,"codmpio":"54001"},{"codigo_puesto":"540019901","DEPNOMBRE":"NORTE DE SAN","MUNNOMBRE":"CUCUTA","PUESNOMBRE":"PUERTO VILLAMIZAR","Latitud":8.31701,"Longitud":-72.44194,"total_votos":168,"ganador":"ABELARDO DE LA ESPRIELLA","votos_ganador":158,"codmpio":"54001"},{"codigo_puesto":"540019953","DEPNOMBRE":"NORTE DE SAN","MUNNOMBRE":"CUCUTA","PUESNOMBRE":"SAN PEDRO","Latitud":7.8190562,"Longitud":-72.5248986,"total_votos":763,"ganador":"ABELARDO DE LA ESPRIELLA","votos_ganador":633,"codmpio":"54001"},{"codigo_puesto":"540019905","DEPNOMBRE":"NORTE DE SAN","MUNNOMBRE":"CUCUTA","PUESNOMBRE":"LA BUENA ESPERANZA","Latitud":8.193247,"Longitud":-72.493147,"total_votos":2932,"ganador":"ABELARDO DE LA ESPRIELLA","votos_ganador":2453,"codmpio":"54001"},{"codigo_puesto":"540019903","DEPNOMBRE":"NORTE DE SAN","MUNNOMBRE":"CUCUTA","PUESNOMBRE":"BANCO DE ARENA","Latitud":8.3589742,"Longitud":-72.4799111,"total_votos":279,"ganador":"ABELARDO DE LA ESPRIELLA","votos_ganador":180,"codmpio":"54001"},{"codigo_puesto":"540019917","DEPNOMBRE":"NORTE DE SAN","MUNNOMBRE":"CUCUTA","PUESNOMBRE":"LIMONCITO","Latitud":8.117647,"Longitud":-72.533488,"total_votos":440,"ganador":"ABELARDO DE LA ESPRIELLA","votos_ganador":356,"codmpio":"54001"},{"codigo_puesto":"540019904","DEPNOMBRE":"NORTE DE SAN","MUNNOMBRE":"CUCUTA","PUESNOMBRE":"PALMARITO","Latitud":8.3135462,"Longitud":-72.4866248,"total_votos":312,"ganador":"ABELARDO DE LA ESPRIELLA","votos_ganador":225,"codmpio":"54001"},{"codigo_puesto":"540019925","DEPNOMBRE":"NORTE DE SAN","MUNNOMBRE":"CUCUTA","PUESNOMBRE":"GUARAMITO","Latitud":8.196869,"Longitud":-72.37782,"total_votos":472,"ganador":"ABELARDO DE LA ESPRIELLA","votos_ganador":410,"codmpio":"54001"},{"codigo_puesto":"540019920","DEPNOMBRE":"NORTE DE SAN","MUNNOMBRE":"CUCUTA","PUESNOMBRE":"AGUACLARA","Latitud":8.235977,"Longitud":-72.427028,"total_votos":2196,"ganador":"ABELARDO DE LA ESPRIELLA","votos_ganador":1794,"codmpio":"54001"},{"codigo_puesto":"540019927","DEPNOMBRE":"NORTE DE SAN","MUNNOMBRE":"CUCUTA","PUESNOMBRE":"RICAURTE","Latitud":8.027267,"Longitud":-72.356471,"total_votos":186,"ganador":"ABELARDO DE LA ESPRIELLA","votos_ganador":172,"codmpio":"54001"},{"codigo_puesto":"540010406","DEPNOMBRE":"NORTE DE SAN","MUNNOMBRE":"CUCUTA","PUESNOMBRE":"I.E.MON.JAIME PRIETO AMAYA","Latitud":7.890235,"Longitud":-72.4736081,"total_votos":1860,"ganador":"ABELARDO DE LA ESPRIELLA","votos_ganador":1440,"codmpio":"54001"},{"codigo_puesto":"540010407","DEPNOMBRE":"NORTE DE SAN","MUNNOMBRE":"CUCUTA","PUESNOMBRE":"COL.CARLOS PEREZ ESCALANTE","Latitud":7.8930742,"Longitud":-72.483651,"total_votos":4909,"ganador":"ABELARDO DE LA ESPRIELLA","votos_ganador":3801,"codmpio":"54001"},{"codigo_puesto":"540019001","DEPNOMBRE":"NORTE DE SAN","MUNNOMBRE":"CUCUTA","PUESNOMBRE":"NORMAL MARIA AUXILIADORA","Latitud":7.884341,"Longitud":-72.501809,"total_votos":1953,"ganador":"ABELARDO DE LA ESPRIELLA","votos_ganador":1674,"codmpio":"54001"},{"codigo_puesto":"540010404","DEPNOMBRE":"NORTE DE SAN","MUNNOMBRE":"CUCUTA","PUESNOMBRE":"COLEGIO PADRE LUIS VARIARA","Latitud":7.9122265,"Longitud":-72.465736,"total_votos":4427,"ganador":"ABELARDO DE LA ESPRIELLA","votos_ganador":3645,"codmpio":"54001"},{"codigo_puesto":"540010405","DEPNOMBRE":"NORTE DE SAN","MUNNOMBRE":"CUCUTA","PUESNOMBRE":"COL BAS CLUB DE LEONES No 29","Latitud":7.9048114,"Longitud":-72.4663064,"total_votos":3062,"ganador":"ABELARDO DE LA ESPRIELLA","votos_ganador":2417,"codmpio":"54001"},{"codigo_puesto":"540010707","DEPNOMBRE":"NORTE DE SAN","MUNNOMBRE":"CUCUTA","PUESNOMBRE":"COL.CONCEJO DE CUCUTA","Latitud":7.9101166,"Longitud":-72.5360747,"total_votos":3150,"ganador":"ABELARDO DE LA ESPRIELLA","votos_ganador":2483,"codmpio":"54001"},{"codigo_puesto":"540010704","DEPNOMBRE":"NORTE DE SAN","MUNNOMBRE":"CUCUTA","PUESNOMBRE":"COL MARIANO OSPINA RODRIGUEZ","Latitud":7.917112,"Longitud":-72.5258324,"total_votos":8567,"ganador":"ABELARDO DE LA ESPRIELLA","votos_ganador":6907,"codmpio":"54001"},{"codigo_puesto":"540010803","DEPNOMBRE":"NORTE DE SAN","MUNNOMBRE":"CUCUTA","PUESNOMBRE":"COL RAFAEL URIBE URIBE","Latitud":7.8942442,"Longitud":-72.5274463,"total_votos":8378,"ganador":"ABELARDO DE LA ESPRIELLA","votos_ganador":6499,"codmpio":"54001"},{"codigo_puesto":"540010806","DEPNOMBRE":"NORTE DE SAN","MUNNOMBRE":"CUCUTA","PUESNOMBRE":"CARLOS RAMIREZ sede NTRA SRA DE MONGUI","Latitud":7.905687,"Longitud":-72.5391079,"total_votos":5036,"ganador":"ABELARDO DE LA ESPRIELLA","votos_ganador":3810,"codmpio":"54001"},{"codigo_puesto":"540010105","DEPNOMBRE":"NORTE DE SAN","MUNNOMBRE":"CUCUTA","PUESNOMBRE":"IE COL SAN JOSE DE CUCUTA","Latitud":7.8835756,"Longitud":-72.5039941,"total_votos":3627,"ganador":"ABELARDO DE LA ESPRIELLA","votos_ganador":2821,"codmpio":"54001"},{"codigo_puesto":"540010101","DEPNOMBRE":"NORTE DE SAN","MUNNOMBRE":"CUCUTA","PUESNOMBRE":"COL SAN JOSE SEDE MERCEDES ABREGO","Latitud":7.886305,"Longitud":-72.5109787,"total_votos":3754,"ganador":"ABELARDO DE LA ESPRIELLA","votos_ganador":2965,"codmpio":"54001"},{"codigo_puesto":"540011001","DEPNOMBRE":"NORTE DE SAN","MUNNOMBRE":"CUCUTA","PUESNOMBRE":"SANTO ANGEL SEDE JOSE EUSEBIO","Latitud":7.875433,"Longitud":-72.507015,"total_votos":4665,"ganador":"ABELARDO DE LA ESPRIELLA","votos_ganador":3586,"codmpio":"54001"},{"codigo_puesto":"540011004","DEPNOMBRE":"NORTE DE SAN","MUNNOMBRE":"CUCUTA","PUESNOMBRE":"ALEJANDRO GUTIERREZ SD SAN JUAN BOSCO","Latitud":7.876916,"Longitud":-72.522211,"total_votos":3045,"ganador":"ABELARDO DE LA ESPRIELLA","votos_ganador":2344,"codmpio":"54001"},{"codigo_puesto":"540011003","DEPNOMBRE":"NORTE DE SAN","MUNNOMBRE":"CUCUTA","PUESNOMBRE":"ESC FRANCISCO DE PAULA ANDRADE No 9","Latitud":7.876819,"Longitud":-72.511432,"total_votos":5750,"ganador":"ABELARDO DE LA ESPRIELLA","votos_ganador":4716,"codmpio":"54001"},{"codigo_puesto":"540011002","DEPNOMBRE":"NORTE DE SAN","MUNNOMBRE":"CUCUTA","PUESNOMBRE":"COL LUIS CARLOS GALAN SARMIENT","Latitud":7.872222,"Longitud":-72.500833,"total_votos":7614,"ganador":"ABELARDO DE LA ESPRIELLA","votos_ganador":6030,"codmpio":"54001"},{"codigo_puesto":"540011005","DEPNOMBRE":"NORTE DE SAN","MUNNOMBRE":"CUCUTA","PUESNOMBRE":"IE NUESTRA SEÑORA DEL ROSARIO","Latitud":7.871675,"Longitud":-72.5308928,"total_votos":5042,"ganador":"ABELARDO DE LA ESPRIELLA","votos_ganador":3793,"codmpio":"54001"},{"codigo_puesto":"540010603","DEPNOMBRE":"NORTE DE SAN","MUNNOMBRE":"CUCUTA","PUESNOMBRE":"COL EUSTORGIO COLMENARES BAUTI","Latitud":7.933473,"Longitud":-72.496794,"total_votos":5969,"ganador":"ABELARDO DE LA ESPRIELLA","votos_ganador":4820,"codmpio":"54001"},{"codigo_puesto":"540010606","DEPNOMBRE":"NORTE DE SAN","MUNNOMBRE":"CUCUTA","PUESNOMBRE":"COL TOLEDO PLATA","Latitud":7.93856,"Longitud":-72.513549,"total_votos":7159,"ganador":"ABELARDO DE LA ESPRIELLA","votos_ganador":5585,"codmpio":"54001"},{"codigo_puesto":"540010610","DEPNOMBRE":"NORTE DE SAN","MUNNOMBRE":"CUCUTA","PUESNOMBRE":"IE VIRGILIO BARCO-COL MPAL AEROPUERTO","Latitud":7.9424389,"Longitud":-72.5024152,"total_votos":723,"ganador":"ABELARDO DE LA ESPRIELLA","votos_ganador":575,"codmpio":"54001"},{"codigo_puesto":"540010607","DEPNOMBRE":"NORTE DE SAN","MUNNOMBRE":"CUCUTA","PUESNOMBRE":"COL MPALSEDE MARIA OFELIA VILLAMIZAR","Latitud":7.9417028,"Longitud":-72.5218316,"total_votos":1996,"ganador":"ABELARDO DE LA ESPRIELLA","votos_ganador":1484,"codmpio":"54001"},{"codigo_puesto":"540010602","DEPNOMBRE":"NORTE DE SAN","MUNNOMBRE":"CUCUTA","PUESNOMBRE":"COL MUNICIPAL AEROPUERTO","Latitud":7.933413,"Longitud":-72.505723,"total_votos":9475,"ganador":"ABELARDO DE LA ESPRIELLA","votos_ganador":7378,"codmpio":"54001"},{"codigo_puesto":"540010102","DEPNOMBRE":"NORTE DE SAN","MUNNOMBRE":"CUCUTA","PUESNOMBRE":"COL SAGRADO SEDE ANTONIA SANTO","Latitud":7.880778,"Longitud":-72.507139,"total_votos":5081,"ganador":"ABELARDO DE LA ESPRIELLA","votos_ganador":3959,"codmpio":"54001"},{"codigo_puesto":"540010104","DEPNOMBRE":"NORTE DE SAN","MUNNOMBRE":"CUCUTA","PUESNOMBRE":"COLEGIO ANTONIO NARIÑO","Latitud":7.89513,"Longitud":-72.508984,"total_votos":3795,"ganador":"ABELARDO DE LA ESPRIELLA","votos_ganador":2993,"codmpio":"54001"},{"codigo_puesto":"540010807","DEPNOMBRE":"NORTE DE SAN","MUNNOMBRE":"CUCUTA","PUESNOMBRE":"I.E.EL RODEO","Latitud":7.8884538,"Longitud":-72.5435341,"total_votos":3413,"ganador":"ABELARDO DE LA ESPRIELLA","votos_ganador":2570,"codmpio":"54001"},{"codigo_puesto":"540010804","DEPNOMBRE":"NORTE DE SAN","MUNNOMBRE":"CUCUTA","PUESNOMBRE":"INST TECN CARLOS RAMIREZ PARIS","Latitud":7.9097184,"Longitud":-72.5381378,"total_votos":9778,"ganador":"ABELARDO DE LA ESPRIELLA","votos_ganador":7783,"codmpio":"54001"},{"codigo_puesto":"540010608","DEPNOMBRE":"NORTE DE SAN","MUNNOMBRE":"CUCUTA","PUESNOMBRE":"CENTRO INTEGRACION CIUDADANA METROPOLI","Latitud":7.9360402,"Longitud":-72.4915207,"total_votos":1674,"ganador":"ABELARDO DE LA ESPRIELLA","votos_ganador":1180,"codmpio":"54001"},{"codigo_puesto":"540010609","DEPNOMBRE":"NORTE DE SAN","MUNNOMBRE":"CUCUTA","PUESNOMBRE":"IE ANCIZAR OCAMPO - COL. ANDRES BELLO","Latitud":7.9175136,"Longitud":-72.50616,"total_votos":1067,"ganador":"ABELARDO DE LA ESPRIELLA","votos_ganador":789,"codmpio":"54001"},{"codigo_puesto":"540010604","DEPNOMBRE":"NORTE DE SAN","MUNNOMBRE":"CUCUTA","PUESNOMBRE":"ESCUELA EL CERRITO","Latitud":7.952847,"Longitud":-72.481712,"total_votos":789,"ganador":"ABELARDO DE LA ESPRIELLA","votos_ganador":684,"codmpio":"54001"},{"codigo_puesto":"540010601","DEPNOMBRE":"NORTE DE SAN","MUNNOMBRE":"CUCUTA","PUESNOMBRE":"COL ANDRES BELLO SEDE LAURA VI","Latitud":7.915752,"Longitud":-72.507782,"total_votos":2719,"ganador":"ABELARDO DE LA ESPRIELLA","votos_ganador":2213,"codmpio":"54001"},{"codigo_puesto":"540010605","DEPNOMBRE":"NORTE DE SAN","MUNNOMBRE":"CUCUTA","PUESNOMBRE":"INST EDUCATIVA SAN JOSE","Latitud":7.946831,"Longitud":-72.506455,"total_votos":6794,"ganador":"ABELARDO DE LA ESPRIELLA","votos_ganador":5281,"codmpio":"54001"},{"codigo_puesto":"544989001","DEPNOMBRE":"NORTE DE SAN","MUNNOMBRE":"OCAÑA","PUESNOMBRE":"COL NAL JOSE EUSEBIO CARO","Latitud":8.2329252,"Longitud":-73.3545528,"total_votos":5290,"ganador":"ABELARDO DE LA ESPRIELLA","votos_ganador":4122,"codmpio":"54498"},{"codigo_puesto":"544980206","DEPNOMBRE":"NORTE DE SAN","MUNNOMBRE":"OCAÑA","PUESNOMBRE":"COLEGIO ALFONSO LOPEZ","Latitud":8.2340547,"Longitud":-73.3574188,"total_votos":2473,"ganador":"ABELARDO DE LA ESPRIELLA","votos_ganador":1587,"codmpio":"54498"},{"codigo_puesto":"544980202","DEPNOMBRE":"NORTE DE SAN","MUNNOMBRE":"OCAÑA","PUESNOMBRE":"CANCHA JUAN XXIII","Latitud":8.2377362,"Longitud":-73.3612371,"total_votos":3556,"ganador":"ABELARDO DE LA ESPRIELLA","votos_ganador":2445,"codmpio":"54498"},{"codigo_puesto":"544980101","DEPNOMBRE":"NORTE DE SAN","MUNNOMBRE":"OCAÑA","PUESNOMBRE":"SEDE LLANADAS No 2","Latitud":8.2453414,"Longitud":-73.3568689,"total_votos":4171,"ganador":"ABELARDO DE LA ESPRIELLA","votos_ganador":2838,"codmpio":"54498"},{"codigo_puesto":"544980103","DEPNOMBRE":"NORTE DE SAN","MUNNOMBRE":"OCAÑA","PUESNOMBRE":"POLIDEPORTIVO CRISTO REY","Latitud":8.2389669,"Longitud":-73.3492355,"total_votos":3822,"ganador":"ABELARDO DE LA ESPRIELLA","votos_ganador":2597,"codmpio":"54498"},{"codigo_puesto":"544980102","DEPNOMBRE":"NORTE DE SAN","MUNNOMBRE":"OCAÑA","PUESNOMBRE":"SEDE SIMON BOLIVAR No 1","Latitud":8.23444,"Longitud":-73.351138,"total_votos":2491,"ganador":"ABELARDO DE LA ESPRIELLA","votos_ganador":1720,"codmpio":"54498"},{"codigo_puesto":"544980108","DEPNOMBRE":"NORTE DE SAN","MUNNOMBRE":"OCAÑA","PUESNOMBRE":"SEDE CUESTA BLANCA","Latitud":8.2270568,"Longitud":-73.3414192,"total_votos":663,"ganador":"ABELARDO DE LA ESPRIELLA","votos_ganador":473,"codmpio":"54498"},{"codigo_puesto":"544980205","DEPNOMBRE":"NORTE DE SAN","MUNNOMBRE":"OCAÑA","PUESNOMBRE":"CANCHA MARABEL","Latitud":8.2452195,"Longitud":-73.3575868,"total_votos":3678,"ganador":"ABELARDO DE LA ESPRIELLA","votos_ganador":2505,"codmpio":"54498"},{"codigo_puesto":"544980208","DEPNOMBRE":"NORTE DE SAN","MUNNOMBRE":"OCAÑA","PUESNOMBRE":"SEDE JOSE ANTONIO GALAN","Latitud":8.2674976,"Longitud":-73.3675236,"total_votos":2692,"ganador":"ABELARDO DE LA ESPRIELLA","votos_ganador":1645,"codmpio":"54498"},{"codigo_puesto":"544980109","DEPNOMBRE":"NORTE DE SAN","MUNNOMBRE":"OCAÑA","PUESNOMBRE":"SEDE KENNEDY","Latitud":8.2357822,"Longitud":-73.3577774,"total_votos":664,"ganador":"ABELARDO DE LA ESPRIELLA","votos_ganador":463,"codmpio":"54498"},{"codigo_puesto":"544980207","DEPNOMBRE":"NORTE DE SAN","MUNNOMBRE":"OCAÑA","PUESNOMBRE":"COLEGIO LA SALLE","Latitud":8.2683077,"Longitud":-73.3665061,"total_votos":2817,"ganador":"ABELARDO DE LA ESPRIELLA","votos_ganador":1788,"codmpio":"54498"},{"codigo_puesto":"544989801","DEPNOMBRE":"NORTE DE SAN","MUNNOMBRE":"OCAÑA","PUESNOMBRE":"CARCEL","Latitud":8.2404845,"Longitud":-73.3585751,"total_votos":101,"ganador":"ABELARDO DE LA ESPRIELLA","votos_ganador":52,"codmpio":"54498"},{"codigo_puesto":"544989985","DEPNOMBRE":"NORTE DE SAN","MUNNOMBRE":"OCAÑA","PUESNOMBRE":"VENADILLO","Latitud":8.249865,"Longitud":-73.3336973,"total_votos":76,"ganador":"ABELARDO DE LA ESPRIELLA","votos_ganador":56,"codmpio":"54498"},{"codigo_puesto":"544989927","DEPNOMBRE":"NORTE DE SAN","MUNNOMBRE":"OCAÑA","PUESNOMBRE":"LAS CHIRCAS","Latitud":8.323758,"Longitud":-73.3552408,"total_votos":105,"ganador":"ABELARDO DE LA ESPRIELLA","votos_ganador":97,"codmpio":"54498"},{"codigo_puesto":"544989928","DEPNOMBRE":"NORTE DE SAN","MUNNOMBRE":"OCAÑA","PUESNOMBRE":"LAS LISCAS","Latitud":8.23866,"Longitud":-73.30913,"total_votos":204,"ganador":"ABELARDO DE LA ESPRIELLA","votos_ganador":168,"codmpio":"54498"},{"codigo_puesto":"544989901","DEPNOMBRE":"NORTE DE SAN","MUNNOMBRE":"OCAÑA","PUESNOMBRE":"AGUAS CLARAS","Latitud":8.3234342,"Longitud":-73.3574027,"total_votos":815,"ganador":"ABELARDO DE LA ESPRIELLA","votos_ganador":621,"codmpio":"54498"},{"codigo_puesto":"544989989","DEPNOMBRE":"NORTE DE SAN","MUNNOMBRE":"OCAÑA","PUESNOMBRE":"LOMA LARGA","Latitud":8.2125471,"Longitud":-73.3935548,"total_votos":41,"ganador":"ABELARDO DE LA ESPRIELLA","votos_ganador":36,"codmpio":"54498"},{"codigo_puesto":"544989975","DEPNOMBRE":"NORTE DE SAN","MUNNOMBRE":"OCAÑA","PUESNOMBRE":"QUEBRADA DE LA ESPERANZA","Latitud":8.3253154,"Longitud":-73.3558162,"total_votos":298,"ganador":"ABELARDO DE LA ESPRIELLA","votos_ganador":263,"codmpio":"54498"},{"codigo_puesto":"544989991","DEPNOMBRE":"NORTE DE SAN","MUNNOMBRE":"OCAÑA","PUESNOMBRE":"IE COL.EDMUNDO VELASQUEZ-SD S. ANT DEL S","Latitud":8.404902,"Longitud":-73.4237464,"total_votos":72,"ganador":"ABELARDO DE LA ESPRIELLA","votos_ganador":48,"codmpio":"54498"},{"codigo_puesto":"544989921","DEPNOMBRE":"NORTE DE SAN","MUNNOMBRE":"OCAÑA","PUESNOMBRE":"PALOGRANDE","Latitud":8.2810379,"Longitud":-73.3170784,"total_votos":97,"ganador":"ABELARDO DE LA ESPRIELLA","votos_ganador":82,"codmpio":"54498"},{"codigo_puesto":"544980210","DEPNOMBRE":"NORTE DE SAN","MUNNOMBRE":"OCAÑA","PUESNOMBRE":"IE AGUSTINA FERRO- SEDE EL CARMEN","Latitud":8.2512262,"Longitud":-73.3565634,"total_votos":522,"ganador":"ABELARDO DE LA ESPRIELLA","votos_ganador":333,"codmpio":"54498"},{"codigo_puesto":"544989970","DEPNOMBRE":"NORTE DE SAN","MUNNOMBRE":"OCAÑA","PUESNOMBRE":"PUEBLO NUEVO","Latitud":8.2311984,"Longitud":-73.3921909,"total_votos":286,"ganador":"ABELARDO DE LA ESPRIELLA","votos_ganador":205,"codmpio":"54498"},{"codigo_puesto":"544989909","DEPNOMBRE":"NORTE DE SAN","MUNNOMBRE":"OCAÑA","PUESNOMBRE":"BUENAVISTA","Latitud":8.1886038,"Longitud":-73.3458698,"total_votos":523,"ganador":"ABELARDO DE LA ESPRIELLA","votos_ganador":449,"codmpio":"54498"},{"codigo_puesto":"544989925","DEPNOMBRE":"NORTE DE SAN","MUNNOMBRE":"OCAÑA","PUESNOMBRE":"LA ERMITA","Latitud":8.1832007,"Longitud":-73.3133608,"total_votos":487,"ganador":"ABELARDO DE LA ESPRIELLA","votos_ganador":421,"codmpio":"54498"},{"codigo_puesto":"544989960","DEPNOMBRE":"NORTE DE SAN","MUNNOMBRE":"OCAÑA","PUESNOMBRE":"PORTACHUELO","Latitud":8.2382064,"Longitud":-73.3257365,"total_votos":68,"ganador":"ABELARDO DE LA ESPRIELLA","votos_ganador":58,"codmpio":"54498"},{"codigo_puesto":"544989913","DEPNOMBRE":"NORTE DE SAN","MUNNOMBRE":"OCAÑA","PUESNOMBRE":"CERRO DE LAS FLORES","Latitud":8.228631,"Longitud":-73.3267261,"total_votos":55,"ganador":"IVÁN CEPEDA CASTRO","votos_ganador":39,"codmpio":"54498"},{"codigo_puesto":"544989918","DEPNOMBRE":"NORTE DE SAN","MUNNOMBRE":"OCAÑA","PUESNOMBRE":"ALTO DE LOS PATIOS","Latitud":8.2481873,"Longitud":-73.2808685,"total_votos":134,"ganador":"ABELARDO DE LA ESPRIELLA","votos_ganador":102,"codmpio":"54498"},{"codigo_puesto":"544989990","DEPNOMBRE":"NORTE DE SAN","MUNNOMBRE":"OCAÑA","PUESNOMBRE":"LA PACHA","Latitud":8.1312999,"Longitud":-73.360885,"total_votos":89,"ganador":"ABELARDO DE LA ESPRIELLA","votos_ganador":65,"codmpio":"54498"},{"codigo_puesto":"544989905","DEPNOMBRE":"NORTE DE SAN","MUNNOMBRE":"OCAÑA","PUESNOMBRE":"AGUA DE LA VIRGEN","Latitud":8.2129931,"Longitud":-73.3813038,"total_votos":389,"ganador":"ABELARDO DE LA ESPRIELLA","votos_ganador":295,"codmpio":"54498"},{"codigo_puesto":"544989926","DEPNOMBRE":"NORTE DE SAN","MUNNOMBRE":"OCAÑA","PUESNOMBRE":"LA FLORESTA","Latitud":8.3828624,"Longitud":-73.3462179,"total_votos":39,"ganador":"ABELARDO DE LA ESPRIELLA","votos_ganador":28,"codmpio":"54498"},{"codigo_puesto":"544989917","DEPNOMBRE":"NORTE DE SAN","MUNNOMBRE":"OCAÑA","PUESNOMBRE":"ESPIRITUSANTO","Latitud":8.1411449,"Longitud":-73.3393514,"total_votos":128,"ganador":"ABELARDO DE LA ESPRIELLA","votos_ganador":113,"codmpio":"54498"},{"codigo_puesto":"544989932","DEPNOMBRE":"NORTE DE SAN","MUNNOMBRE":"OCAÑA","PUESNOMBRE":"LLANO DE LOS TRIGOS","Latitud":8.3060079,"Longitud":-73.3120036,"total_votos":163,"ganador":"ABELARDO DE LA ESPRIELLA","votos_ganador":124,"codmpio":"54498"},{"codigo_puesto":"544989933","DEPNOMBRE":"NORTE DE SAN","MUNNOMBRE":"OCAÑA","PUESNOMBRE":"MARIQUITA","Latitud":8.0525521,"Longitud":-73.3305828,"total_votos":94,"ganador":"ABELARDO DE LA ESPRIELLA","votos_ganador":65,"codmpio":"54498"},{"codigo_puesto":"544989911","DEPNOMBRE":"NORTE DE SAN","MUNNOMBRE":"OCAÑA","PUESNOMBRE":"OTARE","Latitud":8.3998411,"Longitud":-73.4244735,"total_votos":397,"ganador":"ABELARDO DE LA ESPRIELLA","votos_ganador":278,"codmpio":"54498"},{"codigo_puesto":"544980209","DEPNOMBRE":"NORTE DE SAN","MUNNOMBRE":"OCAÑA","PUESNOMBRE":"IE FRANCISCO FERNANDEZ DE CONTRERAS","Latitud":8.2558402,"Longitud":-73.361725,"total_votos":922,"ganador":"ABELARDO DE LA ESPRIELLA","votos_ganador":648,"codmpio":"54498"},{"codigo_puesto":"544980204","DEPNOMBRE":"NORTE DE SAN","MUNNOMBRE":"OCAÑA","PUESNOMBRE":"ESCUELA SANTA CLARA","Latitud":8.266063,"Longitud":-73.3650787,"total_votos":2055,"ganador":"ABELARDO DE LA ESPRIELLA","votos_ganador":1489,"codmpio":"54498"},{"codigo_puesto":"544980105","DEPNOMBRE":"NORTE DE SAN","MUNNOMBRE":"OCAÑA","PUESNOMBRE":"CONCENTRACION ARGELINO DURAN","Latitud":8.2289369,"Longitud":-73.3462447,"total_votos":5093,"ganador":"ABELARDO DE LA ESPRIELLA","votos_ganador":3447,"codmpio":"54498"},{"codigo_puesto":"544980104","DEPNOMBRE":"NORTE DE SAN","MUNNOMBRE":"OCAÑA","PUESNOMBRE":"COMPLEJO HISTORICO","Latitud":8.2321781,"Longitud":-73.3549429,"total_votos":846,"ganador":"ABELARDO DE LA ESPRIELLA","votos_ganador":533,"codmpio":"54498"},{"codigo_puesto":"544980106","DEPNOMBRE":"NORTE DE SAN","MUNNOMBRE":"OCAÑA","PUESNOMBRE":"SEDE DAVID HADDAD SALCEDO","Latitud":8.2331937,"Longitud":-73.3543801,"total_votos":2909,"ganador":"ABELARDO DE LA ESPRIELLA","votos_ganador":1971,"codmpio":"54498"},{"codigo_puesto":"544980201","DEPNOMBRE":"NORTE DE SAN","MUNNOMBRE":"OCAÑA","PUESNOMBRE":"ESCUELA MARABEL","Latitud":8.2460226,"Longitud":-73.3581993,"total_votos":2554,"ganador":"ABELARDO DE LA ESPRIELLA","votos_ganador":1724,"codmpio":"54498"},{"codigo_puesto":"544980203","DEPNOMBRE":"NORTE DE SAN","MUNNOMBRE":"OCAÑA","PUESNOMBRE":"INSTITUTO TECNICO INDUSTRIAL","Latitud":8.2574786,"Longitud":-73.3584477,"total_votos":6096,"ganador":"ABELARDO DE LA ESPRIELLA","votos_ganador":4107,"codmpio":"54498"},{"codigo_puesto":"544980107","DEPNOMBRE":"NORTE DE SAN","MUNNOMBRE":"OCAÑA","PUESNOMBRE":"ESCUELA ADOLFO MILANES","Latitud":8.2313456,"Longitud":-73.3558409,"total_votos":3159,"ganador":"ABELARDO DE LA ESPRIELLA","votos_ganador":2214,"codmpio":"54498"},{"codigo_puesto":"548740108","DEPNOMBRE":"NORTE DE SAN","MUNNOMBRE":"VILLA DEL ROSARIO","PUESNOMBRE":"COLEGIO MANUEL ANTONIO RUEDA","Latitud":7.8335131,"Longitud":-72.4714567,"total_votos":5326,"ganador":"ABELARDO DE LA ESPRIELLA","votos_ganador":4642,"codmpio":"54874"},{"codigo_puesto":"548740106","DEPNOMBRE":"NORTE DE SAN","MUNNOMBRE":"VILLA DEL ROSARIO","PUESNOMBRE":"ESCUELA VEINTE DE JULIO","Latitud":7.8484573,"Longitud":-72.4730703,"total_votos":1752,"ganador":"ABELARDO DE LA ESPRIELLA","votos_ganador":1462,"codmpio":"54874"},{"codigo_puesto":"548740107","DEPNOMBRE":"NORTE DE SAN","MUNNOMBRE":"VILLA DEL ROSARIO","PUESNOMBRE":"INSTITUCION EDUCATIVA SAN ANTONIO","Latitud":7.83287,"Longitud":-72.47734,"total_votos":1106,"ganador":"ABELARDO DE LA ESPRIELLA","votos_ganador":935,"codmpio":"54874"},{"codigo_puesto":"548740201","DEPNOMBRE":"NORTE DE SAN","MUNNOMBRE":"VILLA DEL ROSARIO","PUESNOMBRE":"COLEGIO SAN PEDRO LA PALMITA","Latitud":7.824427,"Longitud":-72.4733099,"total_votos":4442,"ganador":"ABELARDO DE LA ESPRIELLA","votos_ganador":3792,"codmpio":"54874"},{"codigo_puesto":"548740101","DEPNOMBRE":"NORTE DE SAN","MUNNOMBRE":"VILLA DEL ROSARIO","PUESNOMBRE":"ESCUELA POLICARPA SALAVARIETA","Latitud":7.8340367,"Longitud":-72.4726046,"total_votos":4329,"ganador":"ABELARDO DE LA ESPRIELLA","votos_ganador":3650,"codmpio":"54874"},{"codigo_puesto":"548740203","DEPNOMBRE":"NORTE DE SAN","MUNNOMBRE":"VILLA DEL ROSARIO","PUESNOMBRE":"MEGA COLEGIO LA FRONTERA","Latitud":7.8216747,"Longitud":-72.4628912,"total_votos":3647,"ganador":"ABELARDO DE LA ESPRIELLA","votos_ganador":3145,"codmpio":"54874"},{"codigo_puesto":"548749901","DEPNOMBRE":"NORTE DE SAN","MUNNOMBRE":"VILLA DEL ROSARIO","PUESNOMBRE":"JUAN FRIO","Latitud":7.7938263,"Longitud":-72.4719372,"total_votos":1108,"ganador":"ABELARDO DE LA ESPRIELLA","votos_ganador":947,"codmpio":"54874"},{"codigo_puesto":"548740206","DEPNOMBRE":"NORTE DE SAN","MUNNOMBRE":"VILLA DEL ROSARIO","PUESNOMBRE":"POLIDEPORTIVO","Latitud":7.8659811,"Longitud":-72.4748884,"total_votos":1069,"ganador":"ABELARDO DE LA ESPRIELLA","votos_ganador":842,"codmpio":"54874"},{"codigo_puesto":"548749921","DEPNOMBRE":"NORTE DE SAN","MUNNOMBRE":"VILLA DEL ROSARIO","PUESNOMBRE":"PALOGORDO","Latitud":7.6839555,"Longitud":-72.5048279,"total_votos":189,"ganador":"ABELARDO DE LA ESPRIELLA","votos_ganador":180,"codmpio":"54874"},{"codigo_puesto":"548749909","DEPNOMBRE":"NORTE DE SAN","MUNNOMBRE":"VILLA DEL ROSARIO","PUESNOMBRE":"LA UCHEMA","Latitud":7.704715,"Longitud":-72.479432,"total_votos":38,"ganador":"ABELARDO DE LA ESPRIELLA","votos_ganador":32,"codmpio":"54874"},{"codigo_puesto":"548740202","DEPNOMBRE":"NORTE DE SAN","MUNNOMBRE":"VILLA DEL ROSARIO","PUESNOMBRE":"COLEGIO LUIS GABRIEL CASTRO","Latitud":7.8210219,"Longitud":-72.4755755,"total_votos":4736,"ganador":"ABELARDO DE LA ESPRIELLA","votos_ganador":3898,"codmpio":"54874"},{"codigo_puesto":"548740204","DEPNOMBRE":"NORTE DE SAN","MUNNOMBRE":"VILLA DEL ROSARIO","PUESNOMBRE":"COLEGIO PBRO ALVARO SUAREZ","Latitud":7.8562412,"Longitud":-72.4744626,"total_votos":2273,"ganador":"ABELARDO DE LA ESPRIELLA","votos_ganador":1862,"codmpio":"54874"},{"codigo_puesto":"548740207","DEPNOMBRE":"NORTE DE SAN","MUNNOMBRE":"VILLA DEL ROSARIO","PUESNOMBRE":"CTRO DE INTEGRACION CIUD","Latitud":7.8124668,"Longitud":-72.4749753,"total_votos":1397,"ganador":"ABELARDO DE LA ESPRIELLA","votos_ganador":1135,"codmpio":"54874"},{"codigo_puesto":"548740105","DEPNOMBRE":"NORTE DE SAN","MUNNOMBRE":"VILLA DEL ROSARIO","PUESNOMBRE":"GIMNACIO CAMPESTRE","Latitud":7.8760929,"Longitud":-72.4658469,"total_votos":787,"ganador":"ABELARDO DE LA ESPRIELLA","votos_ganador":655,"codmpio":"54874"},{"codigo_puesto":"548740104","DEPNOMBRE":"NORTE DE SAN","MUNNOMBRE":"VILLA DEL ROSARIO","PUESNOMBRE":"ESCUELA SAN MARTIN","Latitud":7.8344315,"Longitud":-72.47535,"total_votos":5331,"ganador":"ABELARDO DE LA ESPRIELLA","votos_ganador":4511,"codmpio":"54874"},{"codigo_puesto":"548740103","DEPNOMBRE":"NORTE DE SAN","MUNNOMBRE":"VILLA DEL ROSARIO","PUESNOMBRE":"ESC. FCO. DE PAULA SANTANDER","Latitud":7.8388003,"Longitud":-72.4704924,"total_votos":3661,"ganador":"ABELARDO DE LA ESPRIELLA","votos_ganador":3086,"codmpio":"54874"},{"codigo_puesto":"548740102","DEPNOMBRE":"NORTE DE SAN","MUNNOMBRE":"VILLA DEL ROSARIO","PUESNOMBRE":"COLEGIO GENERAL SANTANDER","Latitud":7.8320171,"Longitud":-72.4723794,"total_votos":6111,"ganador":"ABELARDO DE LA ESPRIELLA","votos_ganador":4994,"codmpio":"54874"},{"codigo_puesto":"548740205","DEPNOMBRE":"NORTE DE SAN","MUNNOMBRE":"VILLA DEL ROSARIO","PUESNOMBRE":"COLEGIO MONTEVIDEO II","Latitud":7.8183271,"Longitud":-72.4750496,"total_votos":2012,"ganador":"ABELARDO DE LA ESPRIELLA","votos_ganador":1649,"codmpio":"54874"},{"codigo_puesto":"544050208","DEPNOMBRE":"NORTE DE SAN","MUNNOMBRE":"LOS PATIOS","PUESNOMBRE":"CENTRO DE EXPRESION CULTURAL","Latitud":7.7950123,"Longitud":-72.5178988,"total_votos":334,"ganador":"ABELARDO DE LA ESPRIELLA","votos_ganador":229,"codmpio":"54405"},{"codigo_puesto":"544050108","DEPNOMBRE":"NORTE DE SAN","MUNNOMBRE":"LOS PATIOS","PUESNOMBRE":"SALON COMUNAL SANTA CLARA","Latitud":7.8670651,"Longitud":-72.5000745,"total_votos":528,"ganador":"ABELARDO DE LA ESPRIELLA","votos_ganador":436,"codmpio":"54405"},{"codigo_puesto":"544050107","DEPNOMBRE":"NORTE DE SAN","MUNNOMBRE":"LOS PATIOS","PUESNOMBRE":"ESTABLECIMIENTO EDUCATIVO JIAN PIAGET","Latitud":7.8349266,"Longitud":-72.5007846,"total_votos":582,"ganador":"ABELARDO DE LA ESPRIELLA","votos_ganador":453,"codmpio":"54405"},{"codigo_puesto":"544050205","DEPNOMBRE":"NORTE DE SAN","MUNNOMBRE":"LOS PATIOS","PUESNOMBRE":"COLEGIO SAN TARCISIO","Latitud":7.804981,"Longitud":-72.5166241,"total_votos":1220,"ganador":"ABELARDO DE LA ESPRIELLA","votos_ganador":910,"codmpio":"54405"},{"codigo_puesto":"544050207","DEPNOMBRE":"NORTE DE SAN","MUNNOMBRE":"LOS PATIOS","PUESNOMBRE":"ESCUELA 11 DE NOVIEMBRE","Latitud":7.829673,"Longitud":-72.5100776,"total_votos":1695,"ganador":"ABELARDO DE LA ESPRIELLA","votos_ganador":1221,"codmpio":"54405"},{"codigo_puesto":"544050106","DEPNOMBRE":"NORTE DE SAN","MUNNOMBRE":"LOS PATIOS","PUESNOMBRE":"ESCUELA DOCE DE OCTUBRE","Latitud":7.83987,"Longitud":-72.496028,"total_votos":719,"ganador":"ABELARDO DE LA ESPRIELLA","votos_ganador":529,"codmpio":"54405"},{"codigo_puesto":"544050109","DEPNOMBRE":"NORTE DE SAN","MUNNOMBRE":"LOS PATIOS","PUESNOMBRE":"COL.BASICO PATIOS CENTRO No 1","Latitud":7.8393047,"Longitud":-72.5076893,"total_votos":2558,"ganador":"ABELARDO DE LA ESPRIELLA","votos_ganador":2152,"codmpio":"54405"},{"codigo_puesto":"544059930","DEPNOMBRE":"NORTE DE SAN","MUNNOMBRE":"LOS PATIOS","PUESNOMBRE":"MUTIS","Latitud":7.6866231,"Longitud":-72.5292815,"total_votos":242,"ganador":"ABELARDO DE LA ESPRIELLA","votos_ganador":215,"codmpio":"54405"},{"codigo_puesto":"544059928","DEPNOMBRE":"NORTE DE SAN","MUNNOMBRE":"LOS PATIOS","PUESNOMBRE":"LA GARITA","Latitud":7.7292081,"Longitud":-72.5553112,"total_votos":1139,"ganador":"ABELARDO DE LA ESPRIELLA","votos_ganador":942,"codmpio":"54405"},{"codigo_puesto":"544050204","DEPNOMBRE":"NORTE DE SAN","MUNNOMBRE":"LOS PATIOS","PUESNOMBRE":"COLEGIO LLANITOS","Latitud":7.8003437,"Longitud":-72.518813,"total_votos":2280,"ganador":"ABELARDO DE LA ESPRIELLA","votos_ganador":1746,"codmpio":"54405"},{"codigo_puesto":"544050203","DEPNOMBRE":"NORTE DE SAN","MUNNOMBRE":"LOS PATIOS","PUESNOMBRE":"INST. TECNICO MUNICIPAL","Latitud":7.8197814,"Longitud":-72.5130842,"total_votos":5365,"ganador":"ABELARDO DE LA ESPRIELLA","votos_ganador":4108,"codmpio":"54405"},{"codigo_puesto":"544050105","DEPNOMBRE":"NORTE DE SAN","MUNNOMBRE":"LOS PATIOS","PUESNOMBRE":"HOGAR INFANTIL EL MANANTIAL","Latitud":7.8416037,"Longitud":-72.501531,"total_votos":2872,"ganador":"ABELARDO DE LA ESPRIELLA","votos_ganador":2178,"codmpio":"54405"},{"codigo_puesto":"544050102","DEPNOMBRE":"NORTE DE SAN","MUNNOMBRE":"LOS PATIOS","PUESNOMBRE":"COLEGIO BAS. LA SABANA","Latitud":7.845362,"Longitud":-72.5011999,"total_votos":4277,"ganador":"ABELARDO DE LA ESPRIELLA","votos_ganador":3524,"codmpio":"54405"},{"codigo_puesto":"544050201","DEPNOMBRE":"NORTE DE SAN","MUNNOMBRE":"LOS PATIOS","PUESNOMBRE":"COLEGIO 11 DE NOVIEMBRE","Latitud":7.8233938,"Longitud":-72.5136355,"total_votos":5678,"ganador":"ABELARDO DE LA ESPRIELLA","votos_ganador":4554,"codmpio":"54405"},{"codigo_puesto":"544050101","DEPNOMBRE":"NORTE DE SAN","MUNNOMBRE":"LOS PATIOS","PUESNOMBRE":"COMFANORTE","Latitud":7.8568365,"Longitud":-72.5008738,"total_votos":4202,"ganador":"ABELARDO DE LA ESPRIELLA","votos_ganador":3292,"codmpio":"54405"},{"codigo_puesto":"544050103","DEPNOMBRE":"NORTE DE SAN","MUNNOMBRE":"LOS PATIOS","PUESNOMBRE":"COLEGIO FE Y ALEGRIA","Latitud":7.8369688,"Longitud":-72.510056,"total_votos":3200,"ganador":"ABELARDO DE LA ESPRIELLA","votos_ganador":2444,"codmpio":"54405"},{"codigo_puesto":"544050206","DEPNOMBRE":"NORTE DE SAN","MUNNOMBRE":"LOS PATIOS","PUESNOMBRE":"ESCUELA BUENA ESPERANZA","Latitud":7.8170164,"Longitud":-72.5133577,"total_votos":1352,"ganador":"ABELARDO DE LA ESPRIELLA","votos_ganador":1073,"codmpio":"54405"},{"codigo_puesto":"544050104","DEPNOMBRE":"NORTE DE SAN","MUNNOMBRE":"LOS PATIOS","PUESNOMBRE":"COL PATIO CENTRO No.2","Latitud":7.835323,"Longitud":-72.5044202,"total_votos":3886,"ganador":"ABELARDO DE LA ESPRIELLA","votos_ganador":2967,"codmpio":"54405"},{"codigo_puesto":"544050202","DEPNOMBRE":"NORTE DE SAN","MUNNOMBRE":"LOS PATIOS","PUESNOMBRE":"ESCUELA PISARREAL","Latitud":7.8078199,"Longitud":-72.5171684,"total_votos":5611,"ganador":"ABELARDO DE LA ESPRIELLA","votos_ganador":4524,"codmpio":"54405"},{"codigo_puesto":"545189801","DEPNOMBRE":"NORTE DE SAN","MUNNOMBRE":"PAMPLONA","PUESNOMBRE":"CARCEL","Latitud":7.3673253,"Longitud":-72.6561611,"total_votos":55,"ganador":"ABELARDO DE LA ESPRIELLA","votos_ganador":29,"codmpio":"54518"},{"codigo_puesto":"545189930","DEPNOMBRE":"NORTE DE SAN","MUNNOMBRE":"PAMPLONA","PUESNOMBRE":"NEGAVITA","Latitud":7.3518694,"Longitud":-72.6135083,"total_votos":202,"ganador":"ABELARDO DE LA ESPRIELLA","votos_ganador":188,"codmpio":"54518"},{"codigo_puesto":"545180205","DEPNOMBRE":"NORTE DE SAN","MUNNOMBRE":"PAMPLONA","PUESNOMBRE":"COLEGIO PROVINCIAL SAN JOSE","Latitud":7.3648798,"Longitud":-72.6592123,"total_votos":5285,"ganador":"ABELARDO DE LA ESPRIELLA","votos_ganador":4178,"codmpio":"54518"},{"codigo_puesto":"545180204","DEPNOMBRE":"NORTE DE SAN","MUNNOMBRE":"PAMPLONA","PUESNOMBRE":"COLEGIO BRIGHTON SD AFANADOR Y CADENA","Latitud":7.376034,"Longitud":-72.6507,"total_votos":900,"ganador":"ABELARDO DE LA ESPRIELLA","votos_ganador":467,"codmpio":"54518"},{"codigo_puesto":"545180202","DEPNOMBRE":"NORTE DE SAN","MUNNOMBRE":"PAMPLONA","PUESNOMBRE":"CONCENTRACION BASICA GALAN","Latitud":7.3794556,"Longitud":-72.6458139,"total_votos":4780,"ganador":"ABELARDO DE LA ESPRIELLA","votos_ganador":3112,"codmpio":"54518"},{"codigo_puesto":"545189901","DEPNOMBRE":"NORTE DE SAN","MUNNOMBRE":"PAMPLONA","PUESNOMBRE":"LAUREANO GOMEZ","Latitud":7.4088083,"Longitud":-72.7386222,"total_votos":182,"ganador":"ABELARDO DE LA ESPRIELLA","votos_ganador":175,"codmpio":"54518"},{"codigo_puesto":"545180102","DEPNOMBRE":"NORTE DE SAN","MUNNOMBRE":"PAMPLONA","PUESNOMBRE":"I. S. E. R.","Latitud":7.371354,"Longitud":-72.6460478,"total_votos":4182,"ganador":"ABELARDO DE LA ESPRIELLA","votos_ganador":2672,"codmpio":"54518"},{"codigo_puesto":"545180101","DEPNOMBRE":"NORTE DE SAN","MUNNOMBRE":"PAMPLONA","PUESNOMBRE":"LA CASONA-UNIVERSIDAD PAMPLON","Latitud":7.3782751,"Longitud":-72.6492517,"total_votos":4730,"ganador":"ABELARDO DE LA ESPRIELLA","votos_ganador":2988,"codmpio":"54518"},{"codigo_puesto":"545180203","DEPNOMBRE":"NORTE DE SAN","MUNNOMBRE":"PAMPLONA","PUESNOMBRE":"COLEGIO JOSE RAFAEL FARIA BERMUDEZ","Latitud":7.3740241,"Longitud":-72.646361,"total_votos":1315,"ganador":"ABELARDO DE LA ESPRIELLA","votos_ganador":713,"codmpio":"54518"},{"codigo_puesto":"545180201","DEPNOMBRE":"NORTE DE SAN","MUNNOMBRE":"PAMPLONA","PUESNOMBRE":"COLEGIO CRISTO REY","Latitud":7.381,"Longitud":-72.6397098,"total_votos":1784,"ganador":"ABELARDO DE LA ESPRIELLA","votos_ganador":1299,"codmpio":"54518"},{"codigo_puesto":"545180103","DEPNOMBRE":"NORTE DE SAN","MUNNOMBRE":"PAMPLONA","PUESNOMBRE":"SEDE GABRIELA MISTRAL COL.PRO","Latitud":7.3720028,"Longitud":-72.6505633,"total_votos":3354,"ganador":"ABELARDO DE LA ESPRIELLA","votos_ganador":2073,"codmpio":"54518"},{"codigo_puesto":"545180104","DEPNOMBRE":"NORTE DE SAN","MUNNOMBRE":"PAMPLONA","PUESNOMBRE":"EL ROSARIO UNIPAMPLONA","Latitud":7.3785242,"Longitud":-72.647421,"total_votos":4102,"ganador":"IVÁN CEPEDA CASTRO","votos_ganador":2097,"codmpio":"54518"},{"codigo_puesto":"542610202","DEPNOMBRE":"NORTE DE SAN","MUNNOMBRE":"EL ZULIA","PUESNOMBRE":"POLIDEPORT. MULTIFUNCIONAL LA ALEJANDRA","Latitud":7.9478781,"Longitud":-72.606124,"total_votos":1692,"ganador":"ABELARDO DE LA ESPRIELLA","votos_ganador":1370,"codmpio":"54261"},{"codigo_puesto":"542610102","DEPNOMBRE":"NORTE DE SAN","MUNNOMBRE":"EL ZULIA","PUESNOMBRE":"CTRO DE INTEG. CIU. ALTOS DE SAN ANTONIO","Latitud":7.9337899,"Longitud":-72.6060774,"total_votos":2995,"ganador":"ABELARDO DE LA ESPRIELLA","votos_ganador":2519,"codmpio":"54261"},{"codigo_puesto":"542610201","DEPNOMBRE":"NORTE DE SAN","MUNNOMBRE":"EL ZULIA","PUESNOMBRE":"COL FCO DE PAULA STANDER SD ALF. LOPEZ","Latitud":7.9397014,"Longitud":-72.6060285,"total_votos":2744,"ganador":"ABELARDO DE LA ESPRIELLA","votos_ganador":2257,"codmpio":"54261"},{"codigo_puesto":"542610103","DEPNOMBRE":"NORTE DE SAN","MUNNOMBRE":"EL ZULIA","PUESNOMBRE":"LA MILAGROSA","Latitud":7.923208,"Longitud":-72.602066,"total_votos":355,"ganador":"ABELARDO DE LA ESPRIELLA","votos_ganador":296,"codmpio":"54261"},{"codigo_puesto":"542610101","DEPNOMBRE":"NORTE DE SAN","MUNNOMBRE":"EL ZULIA","PUESNOMBRE":"I.E. COLEGIO MARCO FIDEL SUAREZ","Latitud":7.930685,"Longitud":-72.601116,"total_votos":4536,"ganador":"ABELARDO DE LA ESPRIELLA","votos_ganador":3836,"codmpio":"54261"},{"codigo_puesto":"542619927","DEPNOMBRE":"NORTE DE SAN","MUNNOMBRE":"EL ZULIA","PUESNOMBRE":"SAN MIGUEL","Latitud":8.160581,"Longitud":-72.640276,"total_votos":379,"ganador":"ABELARDO DE LA ESPRIELLA","votos_ganador":357,"codmpio":"54261"},{"codigo_puesto":"542619929","DEPNOMBRE":"NORTE DE SAN","MUNNOMBRE":"EL ZULIA","PUESNOMBRE":"CAMILANDIA","Latitud":8.025337,"Longitud":-72.599494,"total_votos":168,"ganador":"ABELARDO DE LA ESPRIELLA","votos_ganador":133,"codmpio":"54261"},{"codigo_puesto":"542619902","DEPNOMBRE":"NORTE DE SAN","MUNNOMBRE":"EL ZULIA","PUESNOMBRE":"ASTILLEROS","Latitud":8.136849,"Longitud":-72.57123,"total_votos":2119,"ganador":"ABELARDO DE LA ESPRIELLA","votos_ganador":1821,"codmpio":"54261"},{"codigo_puesto":"542619901","DEPNOMBRE":"NORTE DE SAN","MUNNOMBRE":"EL ZULIA","PUESNOMBRE":"PAN DE AZUCAR","Latitud":8.0164106,"Longitud":-72.7115124,"total_votos":241,"ganador":"ABELARDO DE LA ESPRIELLA","votos_ganador":233,"codmpio":"54261"},{"codigo_puesto":"542619928","DEPNOMBRE":"NORTE DE SAN","MUNNOMBRE":"EL ZULIA","PUESNOMBRE":"SANTA ROSA","Latitud":8.2558965,"Longitud":-72.5652876,"total_votos":242,"ganador":"ABELARDO DE LA ESPRIELLA","votos_ganador":168,"codmpio":"54261"},{"codigo_puesto":"542619908","DEPNOMBRE":"NORTE DE SAN","MUNNOMBRE":"EL ZULIA","PUESNOMBRE":"ENCERRADEROS","Latitud":7.9827066,"Longitud":-72.7351766,"total_votos":222,"ganador":"ABELARDO DE LA ESPRIELLA","votos_ganador":204,"codmpio":"54261"},{"codigo_puesto":"542619905","DEPNOMBRE":"NORTE DE SAN","MUNNOMBRE":"EL ZULIA","PUESNOMBRE":"CAMPO ALICIA","Latitud":8.0564745,"Longitud":-72.6940057,"total_votos":352,"ganador":"ABELARDO DE LA ESPRIELLA","votos_ganador":318,"codmpio":"54261"},{"codigo_puesto":"540030101","DEPNOMBRE":"NORTE DE SAN","MUNNOMBRE":"ABREGO","PUESNOMBRE":"COLEGIO SANTA BARBARA","Latitud":8.086894,"Longitud":-73.2276907,"total_votos":4622,"ganador":"ABELARDO DE LA ESPRIELLA","votos_ganador":3875,"codmpio":"54003"},{"codigo_puesto":"540030102","DEPNOMBRE":"NORTE DE SAN","MUNNOMBRE":"ABREGO","PUESNOMBRE":"ESCUELA BOLIVAR","Latitud":8.0787419,"Longitud":-73.2219639,"total_votos":2684,"ganador":"ABELARDO DE LA ESPRIELLA","votos_ganador":2289,"codmpio":"54003"},{"codigo_puesto":"540030201","DEPNOMBRE":"NORTE DE SAN","MUNNOMBRE":"ABREGO","PUESNOMBRE":"ESCUELA SAN ANTONIO","Latitud":8.0837032,"Longitud":-73.2173803,"total_votos":2730,"ganador":"ABELARDO DE LA ESPRIELLA","votos_ganador":2238,"codmpio":"54003"},{"codigo_puesto":"540039914","DEPNOMBRE":"NORTE DE SAN","MUNNOMBRE":"ABREGO","PUESNOMBRE":"EL TABACO","Latitud":8.0186722,"Longitud":-73.2288944,"total_votos":94,"ganador":"ABELARDO DE LA ESPRIELLA","votos_ganador":63,"codmpio":"54003"},{"codigo_puesto":"540039903","DEPNOMBRE":"NORTE DE SAN","MUNNOMBRE":"ABREGO","PUESNOMBRE":"CAPITANLARGO","Latitud":8.0953056,"Longitud":-73.2757917,"total_votos":548,"ganador":"ABELARDO DE LA ESPRIELLA","votos_ganador":437,"codmpio":"54003"},{"codigo_puesto":"540039950","DEPNOMBRE":"NORTE DE SAN","MUNNOMBRE":"ABREGO","PUESNOMBRE":"MONTECRISTO","Latitud":7.8361834,"Longitud":-73.2695435,"total_votos":26,"ganador":"ABELARDO DE LA ESPRIELLA","votos_ganador":23,"codmpio":"54003"},{"codigo_puesto":"540039917","DEPNOMBRE":"NORTE DE SAN","MUNNOMBRE":"ABREGO","PUESNOMBRE":"EL HIGUERON","Latitud":8.1654194,"Longitud":-73.239575,"total_votos":119,"ganador":"ABELARDO DE LA ESPRIELLA","votos_ganador":100,"codmpio":"54003"},{"codigo_puesto":"540039933","DEPNOMBRE":"NORTE DE SAN","MUNNOMBRE":"ABREGO","PUESNOMBRE":"LOS INDIOS","Latitud":7.9587139,"Longitud":-73.2634278,"total_votos":35,"ganador":"ABELARDO DE LA ESPRIELLA","votos_ganador":33,"codmpio":"54003"},{"codigo_puesto":"540030202","DEPNOMBRE":"NORTE DE SAN","MUNNOMBRE":"ABREGO","PUESNOMBRE":"ESCUELA LA PIÑUELA","Latitud":8.0710009,"Longitud":-73.2198523,"total_votos":2881,"ganador":"ABELARDO DE LA ESPRIELLA","votos_ganador":2358,"codmpio":"54003"},{"codigo_puesto":"540039913","DEPNOMBRE":"NORTE DE SAN","MUNNOMBRE":"ABREGO","PUESNOMBRE":"EL TARRA","Latitud":8.0601635,"Longitud":-73.2149235,"total_votos":285,"ganador":"ABELARDO DE LA ESPRIELLA","votos_ganador":266,"codmpio":"54003"},{"codigo_puesto":"540039910","DEPNOMBRE":"NORTE DE SAN","MUNNOMBRE":"ABREGO","PUESNOMBRE":"EL GUAMAL","Latitud":8.1966324,"Longitud":-73.102527,"total_votos":300,"ganador":"ABELARDO DE LA ESPRIELLA","votos_ganador":205,"codmpio":"54003"},{"codigo_puesto":"540039927","DEPNOMBRE":"NORTE DE SAN","MUNNOMBRE":"ABREGO","PUESNOMBRE":"LA SIERRA","Latitud":8.0955333,"Longitud":-73.0813472,"total_votos":208,"ganador":"ABELARDO DE LA ESPRIELLA","votos_ganador":178,"codmpio":"54003"},{"codigo_puesto":"540039909","DEPNOMBRE":"NORTE DE SAN","MUNNOMBRE":"ABREGO","PUESNOMBRE":"SAN VICENTE","Latitud":8.1796333,"Longitud":-73.0611833,"total_votos":194,"ganador":"IVÁN CEPEDA CASTRO","votos_ganador":170,"codmpio":"54003"},{"codigo_puesto":"540039908","DEPNOMBRE":"NORTE DE SAN","MUNNOMBRE":"ABREGO","PUESNOMBRE":"SAN JOSE","Latitud":8.0069777,"Longitud":-73.2932604,"total_votos":12,"ganador":"ABELARDO DE LA ESPRIELLA","votos_ganador":12,"codmpio":"54003"},{"codigo_puesto":"540039906","DEPNOMBRE":"NORTE DE SAN","MUNNOMBRE":"ABREGO","PUESNOMBRE":"EL TARRA VIEJO","Latitud":7.966874,"Longitud":-73.114531,"total_votos":48,"ganador":"ABELARDO DE LA ESPRIELLA","votos_ganador":44,"codmpio":"54003"},{"codigo_puesto":"540039923","DEPNOMBRE":"NORTE DE SAN","MUNNOMBRE":"ABREGO","PUESNOMBRE":"GAIRA","Latitud":7.9358944,"Longitud":-73.1219694,"total_votos":57,"ganador":"ABELARDO DE LA ESPRIELLA","votos_ganador":53,"codmpio":"54003"},{"codigo_puesto":"540030203","DEPNOMBRE":"NORTE DE SAN","MUNNOMBRE":"ABREGO","PUESNOMBRE":"MEGACOLEGIO CARLOS JULIO TORRADO P.","Latitud":8.060062,"Longitud":-73.2147711,"total_votos":228,"ganador":"ABELARDO DE LA ESPRIELLA","votos_ganador":185,"codmpio":"54003"},{"codigo_puesto":"540039907","DEPNOMBRE":"NORTE DE SAN","MUNNOMBRE":"ABREGO","PUESNOMBRE":"LA MARIA","Latitud":7.8904398,"Longitud":-73.2135247,"total_votos":141,"ganador":"ABELARDO DE LA ESPRIELLA","votos_ganador":133,"codmpio":"54003"},{"codigo_puesto":"540039912","DEPNOMBRE":"NORTE DE SAN","MUNNOMBRE":"ABREGO","PUESNOMBRE":"EL LLANON","Latitud":8.1896545,"Longitud":-73.019623,"total_votos":84,"ganador":"IVÁN CEPEDA CASTRO","votos_ganador":66,"codmpio":"54003"},{"codigo_puesto":"540039904","DEPNOMBRE":"NORTE DE SAN","MUNNOMBRE":"ABREGO","PUESNOMBRE":"LA ARENOSA","Latitud":8.2027498,"Longitud":-72.9814214,"total_votos":143,"ganador":"ABELARDO DE LA ESPRIELLA","votos_ganador":78,"codmpio":"54003"},{"codigo_puesto":"540039902","DEPNOMBRE":"NORTE DE SAN","MUNNOMBRE":"ABREGO","PUESNOMBRE":"CASITAS","Latitud":7.8419046,"Longitud":-73.1135688,"total_votos":139,"ganador":"ABELARDO DE LA ESPRIELLA","votos_ganador":129,"codmpio":"54003"},{"codigo_puesto":"540039951","DEPNOMBRE":"NORTE DE SAN","MUNNOMBRE":"ABREGO","PUESNOMBRE":"PLAYONCITOS","Latitud":7.8762167,"Longitud":-73.3148583,"total_votos":68,"ganador":"ABELARDO DE LA ESPRIELLA","votos_ganador":63,"codmpio":"54003"},{"codigo_puesto":"540039940","DEPNOMBRE":"NORTE DE SAN","MUNNOMBRE":"ABREGO","PUESNOMBRE":"CANOAS","Latitud":7.8319226,"Longitud":-73.1422792,"total_votos":22,"ganador":"ABELARDO DE LA ESPRIELLA","votos_ganador":19,"codmpio":"54003"},{"codigo_puesto":"540039920","DEPNOMBRE":"NORTE DE SAN","MUNNOMBRE":"ABREGO","PUESNOMBRE":"EL LORO","Latitud":7.8727883,"Longitud":-73.1797085,"total_votos":21,"ganador":"ABELARDO DE LA ESPRIELLA","votos_ganador":20,"codmpio":"54003"},{"codigo_puesto":"540039925","DEPNOMBRE":"NORTE DE SAN","MUNNOMBRE":"ABREGO","PUESNOMBRE":"HOYO PILON","Latitud":8.1798228,"Longitud":-73.0211233,"total_votos":177,"ganador":"IVÁN CEPEDA CASTRO","votos_ganador":151,"codmpio":"54003"},{"codigo_puesto":"545530101","DEPNOMBRE":"NORTE DE SAN","MUNNOMBRE":"PUERTO SANTANDER","PUESNOMBRE":"IE PUERTO SANTANDER","Latitud":8.359764,"Longitud":-72.41212,"total_votos":1490,"ganador":"ABELARDO DE LA ESPRIELLA","votos_ganador":1289,"codmpio":"54553"},{"codigo_puesto":"545530102","DEPNOMBRE":"NORTE DE SAN","MUNNOMBRE":"PUERTO SANTANDER","PUESNOMBRE":"ESCUELA URBANA INTEGRADA SEDE No 3","Latitud":8.3622315,"Longitud":-72.4080234,"total_votos":1486,"ganador":"ABELARDO DE LA ESPRIELLA","votos_ganador":1271,"codmpio":"54553"},{"codigo_puesto":"545530202","DEPNOMBRE":"NORTE DE SAN","MUNNOMBRE":"PUERTO SANTANDER","PUESNOMBRE":"CANCHA 23 DE ABRIL","Latitud":8.3632,"Longitud":-72.4064,"total_votos":342,"ganador":"ABELARDO DE LA ESPRIELLA","votos_ganador":262,"codmpio":"54553"},{"codigo_puesto":"545530201","DEPNOMBRE":"NORTE DE SAN","MUNNOMBRE":"PUERTO SANTANDER","PUESNOMBRE":"ESCUELA MONSEÑOR LEONARDO GOMEZ SERNA","Latitud":8.3585983,"Longitud":-72.4122898,"total_votos":869,"ganador":"ABELARDO DE LA ESPRIELLA","votos_ganador":746,"codmpio":"54553"},{"codigo_puesto":"541090000","DEPNOMBRE":"NORTE DE SAN","MUNNOMBRE":"BUCARASICA","PUESNOMBRE":"PUESTO CABECERA MUNICIPAL","Latitud":8.040874,"Longitud":-72.8677134,"total_votos":952,"ganador":"ABELARDO DE LA ESPRIELLA","votos_ganador":855,"codmpio":"54109"},{"codigo_puesto":"541099909","DEPNOMBRE":"NORTE DE SAN","MUNNOMBRE":"BUCARASICA","PUESNOMBRE":"LA SANJUANA","Latitud":8.07636,"Longitud":-72.8397478,"total_votos":845,"ganador":"ABELARDO DE LA ESPRIELLA","votos_ganador":804,"codmpio":"54109"},{"codigo_puesto":"541099905","DEPNOMBRE":"NORTE DE SAN","MUNNOMBRE":"BUCARASICA","PUESNOMBRE":"LA CURVA","Latitud":8.1348356,"Longitud":-72.9602875,"total_votos":575,"ganador":"ABELARDO DE LA ESPRIELLA","votos_ganador":497,"codmpio":"54109"},{"codigo_puesto":"541099901","DEPNOMBRE":"NORTE DE SAN","MUNNOMBRE":"BUCARASICA","PUESNOMBRE":"AGUABLANCA","Latitud":8.0347091,"Longitud":-72.9406056,"total_votos":485,"ganador":"ABELARDO DE LA ESPRIELLA","votos_ganador":467,"codmpio":"54109"},{"codigo_puesto":"541099911","DEPNOMBRE":"NORTE DE SAN","MUNNOMBRE":"BUCARASICA","PUESNOMBRE":"LAS CUADRAS","Latitud":8.0657733,"Longitud":-72.9419231,"total_votos":135,"ganador":"ABELARDO DE LA ESPRIELLA","votos_ganador":126,"codmpio":"54109"},{"codigo_puesto":"547200000","DEPNOMBRE":"NORTE DE SAN","MUNNOMBRE":"SARDINATA","PUESNOMBRE":"PUESTO CABECERA MUNICIPAL","Latitud":8.081399,"Longitud":-72.8004056,"total_votos":7698,"ganador":"ABELARDO DE LA ESPRIELLA","votos_ganador":7006,"codmpio":"54720"},{"codigo_puesto":"547209904","DEPNOMBRE":"NORTE DE SAN","MUNNOMBRE":"SARDINATA","PUESNOMBRE":"EL CARMEN","Latitud":8.168056,"Longitud":-72.810833,"total_votos":100,"ganador":"ABELARDO DE LA ESPRIELLA","votos_ganador":83,"codmpio":"54720"},{"codigo_puesto":"547209934","DEPNOMBRE":"NORTE DE SAN","MUNNOMBRE":"SARDINATA","PUESNOMBRE":"GUAMO SAN MIGUEL","Latitud":8.1975,"Longitud":-72.672778,"total_votos":31,"ganador":"ABELARDO DE LA ESPRIELLA","votos_ganador":26,"codmpio":"54720"},{"codigo_puesto":"547209913","DEPNOMBRE":"NORTE DE SAN","MUNNOMBRE":"SARDINATA","PUESNOMBRE":"SAN ROQUE","Latitud":8.2163998,"Longitud":-72.7523248,"total_votos":246,"ganador":"ABELARDO DE LA ESPRIELLA","votos_ganador":203,"codmpio":"54720"},{"codigo_puesto":"547209930","DEPNOMBRE":"NORTE DE SAN","MUNNOMBRE":"SARDINATA","PUESNOMBRE":"FATIMA","Latitud":8.211944,"Longitud":-72.777222,"total_votos":31,"ganador":"ABELARDO DE LA ESPRIELLA","votos_ganador":29,"codmpio":"54720"},{"codigo_puesto":"547209947","DEPNOMBRE":"NORTE DE SAN","MUNNOMBRE":"SARDINATA","PUESNOMBRE":"LA ESMERALDA","Latitud":8.228056,"Longitud":-72.755,"total_votos":16,"ganador":"ABELARDO DE LA ESPRIELLA","votos_ganador":16,"codmpio":"54720"},{"codigo_puesto":"547209905","DEPNOMBRE":"NORTE DE SAN","MUNNOMBRE":"SARDINATA","PUESNOMBRE":"LA VICTORIA","Latitud":8.0378134,"Longitud":-72.8030008,"total_votos":385,"ganador":"ABELARDO DE LA ESPRIELLA","votos_ganador":345,"codmpio":"54720"},{"codigo_puesto":"547209902","DEPNOMBRE":"NORTE DE SAN","MUNNOMBRE":"SARDINATA","PUESNOMBRE":"CAMPO RICO","Latitud":8.0222421,"Longitud":-72.8553198,"total_votos":7,"ganador":"ABELARDO DE LA ESPRIELLA","votos_ganador":6,"codmpio":"54720"},{"codigo_puesto":"547209926","DEPNOMBRE":"NORTE DE SAN","MUNNOMBRE":"SARDINATA","PUESNOMBRE":"ENCERRADEROS","Latitud":8.173889,"Longitud":-72.704722,"total_votos":23,"ganador":"ABELARDO DE LA ESPRIELLA","votos_ganador":21,"codmpio":"54720"},{"codigo_puesto":"547209903","DEPNOMBRE":"NORTE DE SAN","MUNNOMBRE":"SARDINATA","PUESNOMBRE":"BALSAMINA","Latitud":8.160278,"Longitud":-72.895556,"total_votos":92,"ganador":"ABELARDO DE LA ESPRIELLA","votos_ganador":74,"codmpio":"54720"},{"codigo_puesto":"547209958","DEPNOMBRE":"NORTE DE SAN","MUNNOMBRE":"SARDINATA","PUESNOMBRE":"LAS MESAS","Latitud":8.021389,"Longitud":-72.776389,"total_votos":14,"ganador":"ABELARDO DE LA ESPRIELLA","votos_ganador":9,"codmpio":"54720"},{"codigo_puesto":"547209901","DEPNOMBRE":"NORTE DE SAN","MUNNOMBRE":"SARDINATA","PUESNOMBRE":"CASCAJAL","Latitud":8.1832273,"Longitud":-72.9459179,"total_votos":62,"ganador":"ABELARDO DE LA ESPRIELLA","votos_ganador":56,"codmpio":"54720"},{"codigo_puesto":"547209920","DEPNOMBRE":"NORTE DE SAN","MUNNOMBRE":"SARDINATA","PUESNOMBRE":"EL VESUBIO","Latitud":8.005833,"Longitud":-72.834167,"total_votos":11,"ganador":"ABELARDO DE LA ESPRIELLA","votos_ganador":11,"codmpio":"54720"},{"codigo_puesto":"547209985","DEPNOMBRE":"NORTE DE SAN","MUNNOMBRE":"SARDINATA","PUESNOMBRE":"SAN ISIDRO","Latitud":8.253611,"Longitud":-72.895833,"total_votos":72,"ganador":"ABELARDO DE LA ESPRIELLA","votos_ganador":54,"codmpio":"54720"},{"codigo_puesto":"547209911","DEPNOMBRE":"NORTE DE SAN","MUNNOMBRE":"SARDINATA","PUESNOMBRE":"SAN MARTIN DE LOBA","Latitud":8.3774998,"Longitud":-72.7121548,"total_votos":517,"ganador":"ABELARDO DE LA ESPRIELLA","votos_ganador":319,"codmpio":"54720"},{"codigo_puesto":"547209910","DEPNOMBRE":"NORTE DE SAN","MUNNOMBRE":"SARDINATA","PUESNOMBRE":"LUIS VERO","Latitud":8.4222603,"Longitud":-72.9177296,"total_votos":326,"ganador":"ABELARDO DE LA ESPRIELLA","votos_ganador":206,"codmpio":"54720"},{"codigo_puesto":"547209907","DEPNOMBRE":"NORTE DE SAN","MUNNOMBRE":"SARDINATA","PUESNOMBRE":"LA CRISTALINA","Latitud":8.169444,"Longitud":-72.880556,"total_votos":47,"ganador":"ABELARDO DE LA ESPRIELLA","votos_ganador":45,"codmpio":"54720"},{"codigo_puesto":"547209987","DEPNOMBRE":"NORTE DE SAN","MUNNOMBRE":"SARDINATA","PUESNOMBRE":"SAN LUIS","Latitud":8.3032264,"Longitud":-72.8398598,"total_votos":62,"ganador":"ABELARDO DE LA ESPRIELLA","votos_ganador":49,"codmpio":"54720"},{"codigo_puesto":"547209975","DEPNOMBRE":"NORTE DE SAN","MUNNOMBRE":"SARDINATA","PUESNOMBRE":"RIO NUEVO","Latitud":8.392778,"Longitud":-72.936944,"total_votos":46,"ganador":"IVÁN CEPEDA CASTRO","votos_ganador":26,"codmpio":"54720"},{"codigo_puesto":"547209940","DEPNOMBRE":"NORTE DE SAN","MUNNOMBRE":"SARDINATA","PUESNOMBRE":"JORDANCITO","Latitud":8.352222,"Longitud":-72.934167,"total_votos":65,"ganador":"ABELARDO DE LA ESPRIELLA","votos_ganador":56,"codmpio":"54720"},{"codigo_puesto":"547209909","DEPNOMBRE":"NORTE DE SAN","MUNNOMBRE":"SARDINATA","PUESNOMBRE":"LAS MERCEDES","Latitud":8.301013,"Longitud":-72.8888695,"total_votos":1848,"ganador":"ABELARDO DE LA ESPRIELLA","votos_ganador":1565,"codmpio":"54720"},{"codigo_puesto":"547209908","DEPNOMBRE":"NORTE DE SAN","MUNNOMBRE":"SARDINATA","PUESNOMBRE":"PARAMILLO","Latitud":8.28166,"Longitud":-72.952222,"total_votos":42,"ganador":"ABELARDO DE LA ESPRIELLA","votos_ganador":32,"codmpio":"54720"},{"codigo_puesto":"548200000","DEPNOMBRE":"NORTE DE SAN","MUNNOMBRE":"TOLEDO","PUESNOMBRE":"PUESTO CABECERA MUNICIPAL","Latitud":7.312557,"Longitud":-72.4843436,"total_votos":5471,"ganador":"ABELARDO DE LA ESPRIELLA","votos_ganador":4844,"codmpio":"54820"},{"codigo_puesto":"548209905","DEPNOMBRE":"NORTE DE SAN","MUNNOMBRE":"TOLEDO","PUESNOMBRE":"LA LOMA","Latitud":7.2461676,"Longitud":-72.4052034,"total_votos":110,"ganador":"ABELARDO DE LA ESPRIELLA","votos_ganador":100,"codmpio":"54820"},{"codigo_puesto":"548209930","DEPNOMBRE":"NORTE DE SAN","MUNNOMBRE":"TOLEDO","PUESNOMBRE":"ROMAN","Latitud":7.3145826,"Longitud":-72.4590397,"total_votos":211,"ganador":"ABELARDO DE LA ESPRIELLA","votos_ganador":195,"codmpio":"54820"},{"codigo_puesto":"548209910","DEPNOMBRE":"NORTE DE SAN","MUNNOMBRE":"TOLEDO","PUESNOMBRE":"LA UNION","Latitud":7.3188817,"Longitud":-72.4859905,"total_votos":78,"ganador":"ABELARDO DE LA ESPRIELLA","votos_ganador":68,"codmpio":"54820"},{"codigo_puesto":"548209901","DEPNOMBRE":"NORTE DE SAN","MUNNOMBRE":"TOLEDO","PUESNOMBRE":"SAN BERNARDO BATA","Latitud":7.2025028,"Longitud":-72.4430162,"total_votos":1293,"ganador":"ABELARDO DE LA ESPRIELLA","votos_ganador":1167,"codmpio":"54820"},{"codigo_puesto":"548209909","DEPNOMBRE":"NORTE DE SAN","MUNNOMBRE":"TOLEDO","PUESNOMBRE":"SAMORE","Latitud":7.0668308,"Longitud":-72.2306495,"total_votos":759,"ganador":"ABELARDO DE LA ESPRIELLA","votos_ganador":536,"codmpio":"54820"},{"codigo_puesto":"548209920","DEPNOMBRE":"NORTE DE SAN","MUNNOMBRE":"TOLEDO","PUESNOMBRE":"LA MESA","Latitud":7.0727849,"Longitud":-72.2550201,"total_votos":163,"ganador":"ABELARDO DE LA ESPRIELLA","votos_ganador":154,"codmpio":"54820"},{"codigo_puesto":"548209940","DEPNOMBRE":"NORTE DE SAN","MUNNOMBRE":"TOLEDO","PUESNOMBRE":"INST. ETNOEDUCATIVA U'WA LZKETA -SEGOVIA","Latitud":7.0338333,"Longitud":-72.2508333,"total_votos":30,"ganador":"IVÁN CEPEDA CASTRO","votos_ganador":25,"codmpio":"54820"},{"codigo_puesto":"548209907","DEPNOMBRE":"NORTE DE SAN","MUNNOMBRE":"TOLEDO","PUESNOMBRE":"SAN ALBERTO","Latitud":7.225568,"Longitud":-72.3209381,"total_votos":75,"ganador":"ABELARDO DE LA ESPRIELLA","votos_ganador":43,"codmpio":"54820"},{"codigo_puesto":"548209908","DEPNOMBRE":"NORTE DE SAN","MUNNOMBRE":"TOLEDO","PUESNOMBRE":"MARGUA","Latitud":7.1959317,"Longitud":-72.3882206,"total_votos":82,"ganador":"IVÁN CEPEDA CASTRO","votos_ganador":46,"codmpio":"54820"},{"codigo_puesto":"548209902","DEPNOMBRE":"NORTE DE SAN","MUNNOMBRE":"TOLEDO","PUESNOMBRE":"GIBRALTAR (RIO COBARIA)","Latitud":7.0118789,"Longitud":-72.12067,"total_votos":334,"ganador":"ABELARDO DE LA ESPRIELLA","votos_ganador":220,"codmpio":"54820"},{"codigo_puesto":"546800000","DEPNOMBRE":"NORTE DE SAN","MUNNOMBRE":"SANTIAGO","PUESNOMBRE":"PUESTO CABECERA MUNICIPAL","Latitud":7.864472,"Longitud":-72.716362,"total_votos":2093,"ganador":"ABELARDO DE LA ESPRIELLA","votos_ganador":1760,"codmpio":"54680"},{"codigo_puesto":"546809909","DEPNOMBRE":"NORTE DE SAN","MUNNOMBRE":"SANTIAGO","PUESNOMBRE":"LA CACAHUALA","Latitud":7.955254,"Longitud":-72.708065,"total_votos":169,"ganador":"ABELARDO DE LA ESPRIELLA","votos_ganador":164,"codmpio":"54680"},{"codigo_puesto":"546809928","DEPNOMBRE":"NORTE DE SAN","MUNNOMBRE":"SANTIAGO","PUESNOMBRE":"LOS NARANJOS","Latitud":7.9489167,"Longitud":-72.7646889,"total_votos":62,"ganador":"ABELARDO DE LA ESPRIELLA","votos_ganador":60,"codmpio":"54680"},{"codigo_puesto":"540510000","DEPNOMBRE":"NORTE DE SAN","MUNNOMBRE":"ARBOLEDAS","PUESNOMBRE":"PUESTO CABECERA MUNICIPAL","Latitud":7.6422944,"Longitud":-72.7967,"total_votos":3269,"ganador":"ABELARDO DE LA ESPRIELLA","votos_ganador":2878,"codmpio":"54051"},{"codigo_puesto":"540519901","DEPNOMBRE":"NORTE DE SAN","MUNNOMBRE":"ARBOLEDAS","PUESNOMBRE":"BARRIENTOS","Latitud":7.6918222,"Longitud":-72.7935167,"total_votos":194,"ganador":"ABELARDO DE LA ESPRIELLA","votos_ganador":176,"codmpio":"54051"},{"codigo_puesto":"540519917","DEPNOMBRE":"NORTE DE SAN","MUNNOMBRE":"ARBOLEDAS","PUESNOMBRE":"UVITO","Latitud":7.6608917,"Longitud":-72.8006306,"total_votos":29,"ganador":"ABELARDO DE LA ESPRIELLA","votos_ganador":16,"codmpio":"54051"},{"codigo_puesto":"540519914","DEPNOMBRE":"NORTE DE SAN","MUNNOMBRE":"ARBOLEDAS","PUESNOMBRE":"LA UVITA","Latitud":7.6521806,"Longitud":-72.8194861,"total_votos":192,"ganador":"ABELARDO DE LA ESPRIELLA","votos_ganador":172,"codmpio":"54051"},{"codigo_puesto":"540519921","DEPNOMBRE":"NORTE DE SAN","MUNNOMBRE":"ARBOLEDAS","PUESNOMBRE":"VILLA SUCRE","Latitud":7.6773066,"Longitud":-72.7345625,"total_votos":477,"ganador":"ABELARDO DE LA ESPRIELLA","votos_ganador":409,"codmpio":"54051"},{"codigo_puesto":"540519912","DEPNOMBRE":"NORTE DE SAN","MUNNOMBRE":"ARBOLEDAS","PUESNOMBRE":"GUZAMAN","Latitud":7.5882806,"Longitud":-72.9147889,"total_votos":179,"ganador":"ABELARDO DE LA ESPRIELLA","votos_ganador":172,"codmpio":"54051"},{"codigo_puesto":"540519915","DEPNOMBRE":"NORTE DE SAN","MUNNOMBRE":"ARBOLEDAS","PUESNOMBRE":"LOS MOLINOS","Latitud":7.6249306,"Longitud":-72.8577222,"total_votos":179,"ganador":"ABELARDO DE LA ESPRIELLA","votos_ganador":161,"codmpio":"54051"},{"codigo_puesto":"540519909","DEPNOMBRE":"NORTE DE SAN","MUNNOMBRE":"ARBOLEDAS","PUESNOMBRE":"CINERA","Latitud":7.6141136,"Longitud":-72.8383109,"total_votos":254,"ganador":"ABELARDO DE LA ESPRIELLA","votos_ganador":245,"codmpio":"54051"},{"codigo_puesto":"540519905","DEPNOMBRE":"NORTE DE SAN","MUNNOMBRE":"ARBOLEDAS","PUESNOMBRE":"CASTRO","Latitud":7.6256795,"Longitud":-72.8580458,"total_votos":571,"ganador":"ABELARDO DE LA ESPRIELLA","votos_ganador":507,"codmpio":"54051"},{"codigo_puesto":"543130000","DEPNOMBRE":"NORTE DE SAN","MUNNOMBRE":"GRAMALOTE","PUESNOMBRE":"PUESTO CABECERA MUNICIPAL","Latitud":7.9143475,"Longitud":-72.7879876,"total_votos":3120,"ganador":"ABELARDO DE LA ESPRIELLA","votos_ganador":2776,"codmpio":"54313"},{"codigo_puesto":"543139909","DEPNOMBRE":"NORTE DE SAN","MUNNOMBRE":"GRAMALOTE","PUESNOMBRE":"SAN ISIDRO","Latitud":7.896953,"Longitud":-72.848506,"total_votos":376,"ganador":"ABELARDO DE LA ESPRIELLA","votos_ganador":355,"codmpio":"54313"},{"codigo_puesto":"543139901","DEPNOMBRE":"NORTE DE SAN","MUNNOMBRE":"GRAMALOTE","PUESNOMBRE":"EL ROSARIO","Latitud":7.9165607,"Longitud":-72.8007317,"total_votos":231,"ganador":"ABELARDO DE LA ESPRIELLA","votos_ganador":218,"codmpio":"54313"},{"codigo_puesto":"543139905","DEPNOMBRE":"NORTE DE SAN","MUNNOMBRE":"GRAMALOTE","PUESNOMBRE":"EL ZUMBADOR","Latitud":7.9495884,"Longitud":-72.7830485,"total_votos":226,"ganador":"ABELARDO DE LA ESPRIELLA","votos_ganador":203,"codmpio":"54313"},{"codigo_puesto":"541250000","DEPNOMBRE":"NORTE DE SAN","MUNNOMBRE":"CACOTA","PUESNOMBRE":"PUESTO CABECERA MUNICIPAL","Latitud":7.2678532,"Longitud":-72.6411378,"total_votos":1719,"ganador":"ABELARDO DE LA ESPRIELLA","votos_ganador":1458,"codmpio":"54125"},{"codigo_puesto":"541259955","DEPNOMBRE":"NORTE DE SAN","MUNNOMBRE":"CACOTA","PUESNOMBRE":"TARGUALA","Latitud":7.2405833,"Longitud":-72.6351167,"total_votos":72,"ganador":"ABELARDO DE LA ESPRIELLA","votos_ganador":66,"codmpio":"54125"},{"codigo_puesto":"546730000","DEPNOMBRE":"NORTE DE SAN","MUNNOMBRE":"SAN CAYETANO","PUESNOMBRE":"PUESTO CABECERA MUNICIPAL","Latitud":7.876195,"Longitud":-72.624553,"total_votos":2591,"ganador":"ABELARDO DE LA ESPRIELLA","votos_ganador":2166,"codmpio":"54673"},{"codigo_puesto":"546739902","DEPNOMBRE":"NORTE DE SAN","MUNNOMBRE":"SAN CAYETANO","PUESNOMBRE":"SAN ISIDRO","Latitud":7.8819304,"Longitud":-72.5476167,"total_votos":800,"ganador":"ABELARDO DE LA ESPRIELLA","votos_ganador":608,"codmpio":"54673"},{"codigo_puesto":"546739921","DEPNOMBRE":"NORTE DE SAN","MUNNOMBRE":"SAN CAYETANO","PUESNOMBRE":"URIMACO","Latitud":7.8990398,"Longitud":-72.5885461,"total_votos":143,"ganador":"ABELARDO DE LA ESPRIELLA","votos_ganador":129,"codmpio":"54673"},{"codigo_puesto":"546739905","DEPNOMBRE":"NORTE DE SAN","MUNNOMBRE":"SAN CAYETANO","PUESNOMBRE":"CORNEJO","Latitud":7.9068482,"Longitud":-72.6359441,"total_votos":1576,"ganador":"ABELARDO DE LA ESPRIELLA","votos_ganador":1371,"codmpio":"54673"},{"codigo_puesto":"546739901","DEPNOMBRE":"NORTE DE SAN","MUNNOMBRE":"SAN CAYETANO","PUESNOMBRE":"AYACUCHO","Latitud":7.8001407,"Longitud":-72.5852512,"total_votos":58,"ganador":"ABELARDO DE LA ESPRIELLA","votos_ganador":51,"codmpio":"54673"},{"codigo_puesto":"542390000","DEPNOMBRE":"NORTE DE SAN","MUNNOMBRE":"DURANIA","PUESNOMBRE":"PUESTO CABECERA MUNICIPAL","Latitud":7.7151056,"Longitud":-72.6555833,"total_votos":3039,"ganador":"ABELARDO DE LA ESPRIELLA","votos_ganador":2640,"codmpio":"54239"},{"codigo_puesto":"542399907","DEPNOMBRE":"NORTE DE SAN","MUNNOMBRE":"DURANIA","PUESNOMBRE":"LA CUCHILLA","Latitud":7.707653,"Longitud":-72.63539,"total_votos":80,"ganador":"ABELARDO DE LA ESPRIELLA","votos_ganador":67,"codmpio":"54239"},{"codigo_puesto":"542399911","DEPNOMBRE":"NORTE DE SAN","MUNNOMBRE":"DURANIA","PUESNOMBRE":"LA TRINIDAD","Latitud":7.7721778,"Longitud":-72.6539333,"total_votos":47,"ganador":"ABELARDO DE LA ESPRIELLA","votos_ganador":43,"codmpio":"54239"},{"codigo_puesto":"542399905","DEPNOMBRE":"NORTE DE SAN","MUNNOMBRE":"DURANIA","PUESNOMBRE":"HATOVIEJO","Latitud":7.7746994,"Longitud":-72.6916296,"total_votos":136,"ganador":"ABELARDO DE LA ESPRIELLA","votos_ganador":125,"codmpio":"54239"},{"codigo_puesto":"542230000","DEPNOMBRE":"NORTE DE SAN","MUNNOMBRE":"CUCUTILLA","PUESNOMBRE":"PUESTO CABECERA MUNICIPAL","Latitud":7.5409103,"Longitud":-72.7724339,"total_votos":4493,"ganador":"ABELARDO DE LA ESPRIELLA","votos_ganador":4004,"codmpio":"54223"},{"codigo_puesto":"542239901","DEPNOMBRE":"NORTE DE SAN","MUNNOMBRE":"CUCUTILLA","PUESNOMBRE":"PUENTE JULIO ARBOLEDA","Latitud":7.6388505,"Longitud":-72.7989506,"total_votos":101,"ganador":"ABELARDO DE LA ESPRIELLA","votos_ganador":93,"codmpio":"54223"},{"codigo_puesto":"542239905","DEPNOMBRE":"NORTE DE SAN","MUNNOMBRE":"CUCUTILLA","PUESNOMBRE":"SAN JOSE DE LA MONTAÑA","Latitud":7.6068817,"Longitud":-72.7459255,"total_votos":388,"ganador":"ABELARDO DE LA ESPRIELLA","votos_ganador":305,"codmpio":"54223"},{"codigo_puesto":"543470000","DEPNOMBRE":"NORTE DE SAN","MUNNOMBRE":"HERRAN","PUESNOMBRE":"PUESTO CABECERA MUNICIPAL","Latitud":7.507264,"Longitud":-72.4827906,"total_votos":1806,"ganador":"ABELARDO DE LA ESPRIELLA","votos_ganador":1706,"codmpio":"54347"},{"codigo_puesto":"543479940","DEPNOMBRE":"NORTE DE SAN","MUNNOMBRE":"HERRAN","PUESNOMBRE":"SIBERIA","Latitud":7.4503051,"Longitud":-72.4520874,"total_votos":197,"ganador":"ABELARDO DE LA ESPRIELLA","votos_ganador":187,"codmpio":"54347"},{"codigo_puesto":"543479935","DEPNOMBRE":"NORTE DE SAN","MUNNOMBRE":"HERRAN","PUESNOMBRE":"HONDA SUR","Latitud":7.5466346,"Longitud":-72.530365,"total_votos":75,"ganador":"ABELARDO DE LA ESPRIELLA","votos_ganador":69,"codmpio":"54347"},{"codigo_puesto":"547430000","DEPNOMBRE":"NORTE DE SAN","MUNNOMBRE":"SILOS","PUESNOMBRE":"PUESTO CABECERA MUNICIPAL","Latitud":7.2069861,"Longitud":-72.7567167,"total_votos":1697,"ganador":"ABELARDO DE LA ESPRIELLA","votos_ganador":1583,"codmpio":"54743"},{"codigo_puesto":"547439920","DEPNOMBRE":"NORTE DE SAN","MUNNOMBRE":"SILOS","PUESNOMBRE":"LA LAGUNA","Latitud":7.25345,"Longitud":-72.7593639,"total_votos":415,"ganador":"ABELARDO DE LA ESPRIELLA","votos_ganador":394,"codmpio":"54743"},{"codigo_puesto":"547439903","DEPNOMBRE":"NORTE DE SAN","MUNNOMBRE":"SILOS","PUESNOMBRE":"BELEN","Latitud":7.1626444,"Longitud":-72.7429222,"total_votos":155,"ganador":"ABELARDO DE LA ESPRIELLA","votos_ganador":152,"codmpio":"54743"},{"codigo_puesto":"547439901","DEPNOMBRE":"NORTE DE SAN","MUNNOMBRE":"SILOS","PUESNOMBRE":"BABEGA","Latitud":7.1975861,"Longitud":-72.7005417,"total_votos":647,"ganador":"ABELARDO DE LA ESPRIELLA","votos_ganador":615,"codmpio":"54743"},{"codigo_puesto":"547439925","DEPNOMBRE":"NORTE DE SAN","MUNNOMBRE":"SILOS","PUESNOMBRE":"LOS RINCON","Latitud":7.1920575,"Longitud":-72.7147567,"total_votos":463,"ganador":"ABELARDO DE LA ESPRIELLA","votos_ganador":436,"codmpio":"54743"},{"codigo_puesto":"548710000","DEPNOMBRE":"NORTE DE SAN","MUNNOMBRE":"VILLA CARO","PUESNOMBRE":"PUESTO CABECERA MUNICIPAL","Latitud":7.9145465,"Longitud":-72.9753521,"total_votos":2422,"ganador":"ABELARDO DE LA ESPRIELLA","votos_ganador":2200,"codmpio":"54871"},{"codigo_puesto":"548719915","DEPNOMBRE":"NORTE DE SAN","MUNNOMBRE":"VILLA CARO","PUESNOMBRE":"ALTO EL POZO","Latitud":8.054346,"Longitud":-73.013738,"total_votos":306,"ganador":"ABELARDO DE LA ESPRIELLA","votos_ganador":287,"codmpio":"54871"},{"codigo_puesto":"540990000","DEPNOMBRE":"NORTE DE SAN","MUNNOMBRE":"BOCHALEMA","PUESNOMBRE":"PUESTO CABECERA MUNICIPAL","Latitud":7.612617,"Longitud":-72.6483681,"total_votos":3428,"ganador":"ABELARDO DE LA ESPRIELLA","votos_ganador":2835,"codmpio":"54099"},{"codigo_puesto":"540999915","DEPNOMBRE":"NORTE DE SAN","MUNNOMBRE":"BOCHALEMA","PUESNOMBRE":"MONTERREDONDO","Latitud":7.7036769,"Longitud":-72.5904465,"total_votos":129,"ganador":"ABELARDO DE LA ESPRIELLA","votos_ganador":118,"codmpio":"54099"},{"codigo_puesto":"540999905","DEPNOMBRE":"NORTE DE SAN","MUNNOMBRE":"BOCHALEMA","PUESNOMBRE":"LA DONJUANA","Latitud":7.6912899,"Longitud":-72.6067597,"total_votos":1724,"ganador":"ABELARDO DE LA ESPRIELLA","votos_ganador":1492,"codmpio":"54099"},{"codigo_puesto":"540999960","DEPNOMBRE":"NORTE DE SAN","MUNNOMBRE":"BOCHALEMA","PUESNOMBRE":"PORTACHUELO","Latitud":7.702016,"Longitud":-72.628205,"total_votos":118,"ganador":"ABELARDO DE LA ESPRIELLA","votos_ganador":104,"codmpio":"54099"},{"codigo_puesto":"540999903","DEPNOMBRE":"NORTE DE SAN","MUNNOMBRE":"BOCHALEMA","PUESNOMBRE":"ESPEJUELOS (NEBRASKA)","Latitud":7.5999999,"Longitud":-72.7,"total_votos":34,"ganador":"ABELARDO DE LA ESPRIELLA","votos_ganador":29,"codmpio":"54099"},{"codigo_puesto":"546600000","DEPNOMBRE":"NORTE DE SAN","MUNNOMBRE":"SALAZAR","PUESNOMBRE":"PUESTO CABECERA MUNICIPAL","Latitud":7.773117,"Longitud":-72.812119,"total_votos":3611,"ganador":"ABELARDO DE LA ESPRIELLA","votos_ganador":3142,"codmpio":"54660"},{"codigo_puesto":"546609907","DEPNOMBRE":"NORTE DE SAN","MUNNOMBRE":"SALAZAR","PUESNOMBRE":"MONTECRISTO","Latitud":7.8022127,"Longitud":-72.8393254,"total_votos":172,"ganador":"ABELARDO DE LA ESPRIELLA","votos_ganador":157,"codmpio":"54660"},{"codigo_puesto":"546609904","DEPNOMBRE":"NORTE DE SAN","MUNNOMBRE":"SALAZAR","PUESNOMBRE":"CAMPO NUEVO","Latitud":7.764921,"Longitud":-72.850276,"total_votos":73,"ganador":"ABELARDO DE LA ESPRIELLA","votos_ganador":66,"codmpio":"54660"},{"codigo_puesto":"546609909","DEPNOMBRE":"NORTE DE SAN","MUNNOMBRE":"SALAZAR","PUESNOMBRE":"SAN ANTONIO","Latitud":7.716707,"Longitud":-72.747787,"total_votos":120,"ganador":"ABELARDO DE LA ESPRIELLA","votos_ganador":113,"codmpio":"54660"},{"codigo_puesto":"546609903","DEPNOMBRE":"NORTE DE SAN","MUNNOMBRE":"SALAZAR","PUESNOMBRE":"ALTO DE ANGULO","Latitud":7.782026,"Longitud":-72.8079707,"total_votos":78,"ganador":"ABELARDO DE LA ESPRIELLA","votos_ganador":67,"codmpio":"54660"},{"codigo_puesto":"546609905","DEPNOMBRE":"NORTE DE SAN","MUNNOMBRE":"SALAZAR","PUESNOMBRE":"LA LAGUNA","Latitud":7.807908,"Longitud":-72.771851,"total_votos":541,"ganador":"ABELARDO DE LA ESPRIELLA","votos_ganador":477,"codmpio":"54660"},{"codigo_puesto":"546609906","DEPNOMBRE":"NORTE DE SAN","MUNNOMBRE":"SALAZAR","PUESNOMBRE":"EL ZULIA","Latitud":7.7918553,"Longitud":-72.7856284,"total_votos":250,"ganador":"ABELARDO DE LA ESPRIELLA","votos_ganador":219,"codmpio":"54660"},{"codigo_puesto":"546609901","DEPNOMBRE":"NORTE DE SAN","MUNNOMBRE":"SALAZAR","PUESNOMBRE":"EL CARMEN DE NAZARETH","Latitud":7.8559969,"Longitud":-72.8877929,"total_votos":1071,"ganador":"ABELARDO DE LA ESPRIELLA","votos_ganador":989,"codmpio":"54660"},{"codigo_puesto":"546609913","DEPNOMBRE":"NORTE DE SAN","MUNNOMBRE":"SALAZAR","PUESNOMBRE":"SAN JOSE DE AVILA","Latitud":7.834055,"Longitud":-72.879339,"total_votos":177,"ganador":"ABELARDO DE LA ESPRIELLA","votos_ganador":166,"codmpio":"54660"},{"codigo_puesto":"544180000","DEPNOMBRE":"NORTE DE SAN","MUNNOMBRE":"LOURDES","PUESNOMBRE":"PUESTO CABECERA MUNICIPAL","Latitud":7.9451553,"Longitud":-72.8322983,"total_votos":2712,"ganador":"ABELARDO DE LA ESPRIELLA","votos_ganador":2540,"codmpio":"54418"},{"codigo_puesto":"543989950","DEPNOMBRE":"NORTE DE SAN","MUNNOMBRE":"LA PLAYA","PUESNOMBRE":"MACIEGAS","Latitud":8.2097268,"Longitud":-73.2414789,"total_votos":167,"ganador":"ABELARDO DE LA ESPRIELLA","votos_ganador":156,"codmpio":"54398"},{"codigo_puesto":"543980000","DEPNOMBRE":"NORTE DE SAN","MUNNOMBRE":"LA PLAYA","PUESNOMBRE":"PUESTO CABECERA MUNICIPAL","Latitud":8.2111672,"Longitud":-73.2394027,"total_votos":2193,"ganador":"ABELARDO DE LA ESPRIELLA","votos_ganador":1842,"codmpio":"54398"},{"codigo_puesto":"543989903","DEPNOMBRE":"NORTE DE SAN","MUNNOMBRE":"LA PLAYA","PUESNOMBRE":"CURASICA","Latitud":8.2365579,"Longitud":-73.1647637,"total_votos":129,"ganador":"ABELARDO DE LA ESPRIELLA","votos_ganador":111,"codmpio":"54398"},{"codigo_puesto":"543989901","DEPNOMBRE":"NORTE DE SAN","MUNNOMBRE":"LA PLAYA","PUESNOMBRE":"ASPASICA","Latitud":8.2808719,"Longitud":-73.1953494,"total_votos":805,"ganador":"ABELARDO DE LA ESPRIELLA","votos_ganador":562,"codmpio":"54398"},{"codigo_puesto":"543989905","DEPNOMBRE":"NORTE DE SAN","MUNNOMBRE":"LA PLAYA","PUESNOMBRE":"EL CINCHO LA VEGA DE SAN ANTONIO","Latitud":8.2325985,"Longitud":-73.0531653,"total_votos":479,"ganador":"IVÁN CEPEDA CASTRO","votos_ganador":381,"codmpio":"54398"},{"codigo_puesto":"545200000","DEPNOMBRE":"NORTE DE SAN","MUNNOMBRE":"PAMPLONITA","PUESNOMBRE":"PUESTO CABECERA MUNICIPAL","Latitud":7.437039,"Longitud":-72.6383829,"total_votos":2643,"ganador":"ABELARDO DE LA ESPRIELLA","votos_ganador":2274,"codmpio":"54520"},{"codigo_puesto":"545209901","DEPNOMBRE":"NORTE DE SAN","MUNNOMBRE":"PAMPLONITA","PUESNOMBRE":"EL DIAMANTE","Latitud":7.437289,"Longitud":-72.6330239,"total_votos":858,"ganador":"ABELARDO DE LA ESPRIELLA","votos_ganador":736,"codmpio":"54520"},{"codigo_puesto":"541720001","DEPNOMBRE":"NORTE DE SAN","MUNNOMBRE":"CHINACOTA","PUESNOMBRE":"COLEGIO SAN LUIS GONZAGA","Latitud":7.604256,"Longitud":-72.6014972,"total_votos":8746,"ganador":"ABELARDO DE LA ESPRIELLA","votos_ganador":7004,"codmpio":"54172"},{"codigo_puesto":"541729901","DEPNOMBRE":"NORTE DE SAN","MUNNOMBRE":"CHINACOTA","PUESNOMBRE":"NUEVA DONJUANA","Latitud":7.68822,"Longitud":-72.60495,"total_votos":323,"ganador":"ABELARDO DE LA ESPRIELLA","votos_ganador":265,"codmpio":"54172"},{"codigo_puesto":"541720002","DEPNOMBRE":"NORTE DE SAN","MUNNOMBRE":"CHINACOTA","PUESNOMBRE":"ESCUELA MARIANO OSPINA RODRIGUEZ","Latitud":7.6047533,"Longitud":-72.6008669,"total_votos":1021,"ganador":"ABELARDO DE LA ESPRIELLA","votos_ganador":803,"codmpio":"54172"},{"codigo_puesto":"541729902","DEPNOMBRE":"NORTE DE SAN","MUNNOMBRE":"CHINACOTA","PUESNOMBRE":"PUESTO DE VOTACION VEREDA ISCALA","Latitud":7.5225561,"Longitud":-72.5731582,"total_votos":186,"ganador":"ABELARDO DE LA ESPRIELLA","votos_ganador":157,"codmpio":"54172"},{"codigo_puesto":"541729903","DEPNOMBRE":"NORTE DE SAN","MUNNOMBRE":"CHINACOTA","PUESNOMBRE":"VEREDA OROZCO","Latitud":7.633914,"Longitud":-72.560675,"total_votos":103,"ganador":"ABELARDO DE LA ESPRIELLA","votos_ganador":87,"codmpio":"54172"},